Interior Temperature 1, Interior Temperature 2, Exterior Temperature, Pressure, Humidity, GPS Time, Altitude, Latitude, Longitude, Number of GPS Satellites, Acceleration (x), Acceleration (y), Acceleration (z), Rotation Rate (x), Rotation Rate (y), Rotation Rate (z), Magnetic Field (x), Magnetic Field (y), Magnetic Field (z), Pitch, Roll, Yaw, Time Since Reset, Data Logging Status, Data Filename, Data Age, Relay States
84.875, 83.75, 78.2375030518, 11.825093178, 26.5012207031, 2019-09-01 15:26:44, 6077.6904832, 37.6257216, -104.7785216, 6, 0.0161649994552, -0.0261690001935, 1.00369393826, 0.612500011921, 2.80874991417, 0.34999999404, 0.255640000105, 0.336140006781, -0.238140001893, -0.92238432169, -1.49351656437, 51.5735855103, 0.001, 46, DATA6568.CSV, 0.0, (True, True, False, False)
84.875, 83.75, 78.2375030518, 11.824803102, 26.5241088867, 2019-09-01 15:27:22, 6099.6721112, 37.6257504, -104.7785216, 6, 0.0312930010259, -0.0261080004275, 1.00540196896, 0.358750015497, 2.7037498951, 0.236249998212, 0.254519999027, 0.33599999547, -0.24934001267, -1.78214740753, -1.48750650883, 51.4639282227, 0.001, 46, DATA2150.CSV, 0.0, (True, True, False, False)
84.875, 83.75, 78.2375030518, 11.824803102, 26.4859619141, 2019-09-01 15:28:29, 6096.7193552, 37.625792, -104.7784896, 7, 0.034648001194, -0.0276330001652, 1.00302302837, 0.498750001192, 2.77375006676, 0.253749996424, 0.255780011415, 0.331100016832, -0.24906000495, -1.97766470909, -1.57808315754, 52.006652832, 0.001, 46, DATA1585.CSV, 0.0, (True, True, False, False)
84.7624969482, 83.75, 78.2375030518, 11.8250569185, 26.4554443359, 2019-09-01 15:28:58, 6094.0946832, 37.6257856, -104.7784768, 6, 0.0355629995465, -0.0262909997255, 1.00674402714, 0.769999980927, 3.02749991417, 0.30625000596, 0.256760001183, 0.337400019169, -0.245420008898, -2.02242994308, -1.49593234062, 51.5909805298, 0.001, 46, DATA5254.CSV, 0.0, (True, True, False, False)
84.7624969482, 83.75, 78.2375030518, 11.8246943235, 26.4783325195, 2019-09-01 15:29:30, 6096.0631872, 37.6257728, -104.7784896, 7, 0.0344650000334, -0.0272669997066, 1.00381600857, 0.629999995232, 2.68624997139, 0.323749989271, 0.256480008364, 0.335860013962, -0.240380004048, -1.96569526196, -1.55596220493, 51.6872138977, 0.001, 46, DATA7403.CSV, 0.0, (True, True, False, False)
84.7624969482, 83.75, 78.2375030518, 11.8244767665, 26.5469970703, 2019-09-01 15:30:08, 6094.0946832, 37.6257696, -104.7784896, 7, 0.0345869995654, -0.0275719985366, 1.00607299805, 0.481249988079, 2.84375, 0.524999976158, 0.256200015545, 0.339780002832, -0.248220011592, -1.96821320057, -1.56983006001, 51.3369293213, 0.001, 46, DATA1925.CSV, 0.0, (True, True, False, False)
84.7624969482, 83.75, 78.2375030518, 11.825310735, 26.6080322266, 2019-09-01 15:30:37, 6101.3125312, 37.6258048, -104.778496, 7, 0.0359899997711, -0.0294629987329, 1.00509703159, 0.446249991655, 2.89625000954, 0.280000001192, 0.254240006208, 0.341179996729, -0.244860008359, -2.04986166954, -1.67906391621, 51.0126838684, 0.001, 46, DATA5839.CSV, 0.0, (True, True, False, False)
84.875, 83.8625030518, 78.2375030518, 11.8250569185, 26.8750610352, 2019-09-01 15:31:15, 6093.7665992, 37.625856, -104.7784768, 7, 0.0341599993408, -0.0285479985178, 1.00832998753, 0.524999976158, 2.94000005722, 0.34999999404, 0.252279996872, 0.337400019169, -0.235899999738, -1.93953585625, -1.62173378468, 51.1061210632, 0.001, 46, DATA1705.CSV, 0.0, (True, True, False, False)
84.875, 83.6374969482, 78.2375030518, 11.8249118805, 26.7682495117, 2019-09-01 15:31:44, 6098.0316912, 37.6258464, -104.7784704, 7, 0.0333059988916, -0.029097000137, 1.00631701946, 0.612500011921, 2.59875011444, 0.367500007153, 0.252700001001, 0.335440009832, -0.233660012484, -1.89483070374, -1.65620851517, 51.3121337891, 0.001, 46, DATA5278.CSV, 0.0, (True, True, False, False)
84.875, 83.6374969482, 78.2375030518, 11.8248393615, 26.7758789062, 2019-09-01 15:32:15, 6098.0316912, 37.6258304, -104.7784896, 7, 0.0328180007637, -0.0276939999312, 1.0028399229, 0.481249988079, 2.51999998093, 0.323749989271, 0.25354000926, 0.335020005703, -0.242620006204, -1.87362539768, -1.58185374737, 51.4380950928, 0.001, 46, DATA6797.CSV, 0.0, (True, True, False, False)
84.875, 83.6374969482, 78.2375030518, 11.8245492855, 26.7377319336, 2019-09-01 15:32:54, 6106.5618752, 37.625856, -104.778528, 7, 0.0333059988916, -0.0297679994255, 1.00570702553, 0.577499985695, 2.77375006676, 0.288749992847, 0.249620005488, 0.334879994392, -0.252560019493, -1.89594125748, -1.69540703297, 51.0208969116, 0.001, 46, DATA1974.CSV, 0.0, (True, True, False, False)
84.9875030518, 83.6374969482, 78.2375030518, 11.8247668425, 26.6385498047, 2019-09-01 15:33:24, 6109.8427152, 37.6258496, -104.7785344, 5, 0.0322079993784, -0.0256810002029, 1.00643897057, 0.682500004768, 2.77375006676, 0.236249998212, 0.259000003338, 0.337119996548, -0.240240007639, -1.83235442638, -1.4616818428, 51.8540802002, 0.001, 46, DATA5573.CSV, 0.0, (True, True, False, False)
84.875, 83.6374969482, 78.2375030518, 11.825600811, 26.6080322266, 2019-09-01 15:34:00, 6104.5933712, 37.6258368, -104.778528, 7, 0.03501399979, -0.0251320004463, 1.00540196896, 0.4375, 2.80874991417, 0.288749992847, 0.255080014467, 0.338800013065, -0.24430000782, -1.99394702911, -1.43192255497, 51.2958183289, 0.001, 46, DATA1513.CSV, 0.0, (True, True, False, False)
84.7624969482, 83.6374969482, 78.2375030518, 11.825238216, 26.5927734375, 2019-09-01 15:34:30, 6117.3886472, 37.6258688, -104.7785344, 7, 0.0342819988728, -0.0312319993973, 1.00186395645, 0.787500023842, 2.58999991417, 0.393750011921, 0.254240006208, 0.343700021505, -0.242620006204, -1.95884394646, -1.7855540514, 50.8108825684, 0.001, 46, DATA5276.CSV, 0.0, (True, True, False, False)
84.7624969482, 83.6374969482, 78.2375030518, 11.824875621, 26.5927734375, 2019-09-01 15:35:08, 6120.6694872, 37.6258688, -104.7785408, 7, 0.034892000258, -0.0265349987894, 1.00326693058, 0.59500002861, 2.55500006676, 0.516250014305, 0.251579999924, 0.335580021143, -0.245000004768, -1.99115562439, -1.51503944397, 51.1784210205, 0.001, 46, DATA155.CSV, 0.0, (True, True, False, False)
84.7624969482, 83.5249938965, 78.2375030518, 11.82494814, 26.5317382812, 2019-09-01 15:35:40, 6126.9030832, 37.625856, -104.7785536, 7, 0.0273279994726, -0.026839999482, 1.00619494915, 0.524999976158, 2.93125009537, 0.236249998212, 0.251300007105, 0.337400019169, -0.240240007639, -1.55520355701, -1.52798819542, 50.9992256165, 0.001, 46, DATA1553.CSV, 0.0, (True, True, False, False)
84.875, 83.4124984741, 78.4624938965, 11.825818368, 26.71484375, 2019-09-01 15:36:10, 6136.7456032, 37.62584, -104.7785152, 7, 0.0361730009317, -0.0279989987612, 1.00235199928, 0.568750023842, 2.79999995232, 0.288749992847, 0.256339997053, 0.338239997625, -0.243320003152, -2.06599497795, -1.60004401207, 51.4771881104, 0.001, 46, DATA4578.CSV, 0.0, (True, True, False, False)
85.0999984741, 83.5249938965, 78.4624938965, 11.8247668425, 26.829284668, 2019-09-01 15:36:41, 6138.0579392, 37.6258176, -104.7785152, 7, 0.0333059988916, -0.0258029997349, 1.0088789463, 0.498750001192, 2.77375006676, 0.297500014305, 0.254800021648, 0.341320008039, -0.238140001893, -1.89019429684, -1.46507239342, 51.0618400574, 0.001, 46, DATA6885.CSV, 0.0, (True, True, False, False)
85.2124938965, 83.6374969482, 78.3499984741, 11.825455773, 26.8369140625, 2019-09-01 15:37:19, 6142.6511152, 37.62584, -104.7785088, 7, 0.0337329991162, -0.0264739990234, 1.00674402714, 0.822499990463, 2.7650001049, 0.166250005364, 0.257320016623, 0.333760023117, -0.229320004582, -1.91843032837, -1.50634002686, 51.9512557983, 0.001, 46, DATA2125.CSV, 0.0, (True, True, False, False)
85.2124938965, 83.6374969482, 78.4624938965, 11.8252019565, 26.7911376953, 2019-09-01 15:37:49, 6155.4463912, 37.6258176, -104.778496, 7, 0.0315370000899, -0.023302000016, 1.00997698307, 0.778750002384, 3.15875005722, 0.446249991655, 0.259979993105, 0.33599999547, -0.233240008354, -1.78803050518, -1.32168292999, 52.0509109497, 0.001, 46, DATA5694.CSV, 0.0, (True, True, False, False)
85.2124938965, 83.6374969482, 78.3499984741, 11.8252744755, 26.6080322266, 2019-09-01 15:38:27, 6163.9765752, 37.6258208, -104.7785152, 7, 0.0340379998088, -0.0275719985366, 1.00747597218, 0.323749989271, 2.58124995232, 0.227500006557, 0.261099994183, 0.34090000391, -0.235760003328, -1.93430244923, -1.56764507294, 51.7689971924, 0.001, 46, DATA736.CSV, 0.0, (True, True, False, False)
84.9875030518, 83.6374969482, 78.3499984741, 11.8244767665, 26.5469970703, 2019-09-01 15:38:59, 6163.3204072, 37.6258176, -104.7785216, 7, 0.0336719974875, -0.0256810002029, 1.00607299805, 0.638750016689, 2.625, 0.384999990463, 0.257180005312, 0.335440009832, -0.242060005665, -1.91627836227, -1.46221339703, 51.7971801758, 0.001, 46, DATA2139.CSV, 0.0, (True, True, False, False)
