Interior Temperature 1, Interior Temperature 2, Exterior Temperature, Pressure, Humidity, GPS Time, Altitude, Ascent Rate, Latitude, Longitude, GPS Validity, GPS Sentences, Failed GPS Sentences, Number of GPS Satellites, Acceleration (x), Acceleration (y), Acceleration (z), Rotation Rate (x), Rotation Rate (y), Rotation Rate (z), Magnetic Field (x), Magnetic Field (y), Magnetic Field (z), Pitch, Roll, Yaw, Time Since Reset, Data Logging Status, Data Filename, Data Age, Relay States
56.75, 55.175, 53.825, 13.666495626, 66.9633789062, 2017-08-03 05:43:28, 2112.86096, -0.784481776948, 47.11654, -117.475086667, True, 200, 68, 9, -0.119803994894, -0.0370269976556, 1.01113593578, 0.598200023174, -0.708000063896, 0.435939997435, 0.153439998627, 0.0501199997962, -0.185080006719, 6.75267791748, -2.09718894958, 86.2307662964, 389.065, True, DATA001.CSV, 4.588, (False, False, False, False)
56.75, 55.4, 53.6, 13.6666044045, 66.5018844604, 2017-08-03 05:44:04, 2112.532876, -0.780960083008, 47.11654, -117.475086667, True, 223, 75, 9, -0.116265997291, -0.0359899997711, 1.01638197899, 0.545700013638, -0.81300008297, 0.287189990282, 0.156240001321, 0.047460000962, -0.179340004921, 6.52176189423, -2.02799129486, 87.4231338501, 425.395, True, DATA001.CSV, 1.319, (False, False, False, False)
56.8625, 55.625, 53.4875, 13.6671845565, 66.3567810059, 2017-08-03 05:44:33, 2112.204792, -0.781975185918, 47.116538333, -117.475086667, True, 240, 83, 9, -0.116875998676, -0.0382470004261, 1.02138400078, 0.650700032711, -0.821750044823, 0.164689987898, 0.159180000424, 0.0527800023556, -0.185640007257, 6.52337503433, -2.14451003075, 85.9757995605, 456.655, True, DATA001.CSV, 3.205, (False, False, False, False)
56.975, 55.85, 53.4875, 13.666350588, 65.7500305176, 2017-08-03 05:45:12, 2111.876708, -0.720595376077, 47.116538333, -117.475085, True, 263, 91, 8, -0.115655995905, -0.0344650000334, 1.01229500771, 0.326950013638, -0.620500087738, 0.234690010548, 0.160580009222, 0.0547400005162, -0.181859999895, 6.5141119957, -1.94996166229, 85.4962997437, 493.271, True, DATA001.CSV, 0.0, (False, False, False, False)
57.0875, 56.1875, 53.375, 13.6667494425, 65.1431121826, 2017-08-03 05:45:43, 2111.548624, -0.680746903608, 47.116538333, -117.475085, True, 281, 94, 8, -0.120901994407, -0.0366609990597, 1.0112580061, 0.510699987411, -0.848000049591, 0.400940001011, 0.158900007606, 0.0467600002885, -0.189560011029, 6.81326150894, -2.07622671127, 87.9222640991, 524.387, True, DATA001.CSV, 2.037, (False, False, False, False)
57.2, 56.4125, 53.6, 13.667583411, 64.5360412598, 2017-08-03 05:46:14, 2111.22054, -0.743682321534, 47.116538333, -117.475085, True, 301, 101, 8, -0.118827998638, -0.0342819988728, 1.01186800003, 0.291949987411, -0.786750078201, 0.190939992666, 0.164780005813, 0.0515200011432, -0.182840004563, 6.69400548935, -1.94043374062, 86.9576568604, 555.362, True, DATA001.CSV, 4.207, (False, False, False, False)
57.3125, 56.6375, 53.6, 13.6676196705, 64.6984786987, 2017-08-03 05:46:50, 2111.548624, 0.000663914317988, 47.116516667, -117.475083333, True, 325, 107, 9, -0.123585999012, -0.0352579988539, 1.00625598431, 0.589450001717, -0.81300008297, 0.269690006971, 0.155680000782, 0.0568400025368, -0.181020006537, 6.99761581421, -2.00675415993, 84.2624511719, 591.588, True, DATA001.CSV, 1.131, (False, False, False, False)
57.65, 56.975, 53.6, 13.6671120375, 64.724067688, 2017-08-03 05:47:24, 2111.548624, 2529.73095627, 47.116538333, -117.475115, True, 17, 4, 9, -0.121511995792, -0.0603289976716, 1.05536103249, -1.46680009365, -3.44675016403, 0.418439984322, 0.153300002217, 0.0667800009251, -0.180040001869, 6.55737876892, -3.27171349525, 80.7812652588, 24.903, True, DATA002.CSV, 3.917, (False, False, False, False)
58.1, 57.5375, 54.1625, 13.6660242525, 64.4500732422, 2017-08-03 05:47:56, 2113.845212, 2.09761235625, 47.116531667, -117.475121667, True, 37, 6, 9, -0.120352998376, -0.0352579988539, 1.00796401501, 0.47570002079, -0.830500125885, 0.199690014124, 0.153300002217, 0.0660800039768, -0.182280004025, 6.80487632751, -2.00335621834, 81.0015258789, 57.545, True, DATA002.CSV, 4.448, (False, False, False, False)
58.55, 57.65, 54.3875, 13.6652265435, 65.1007385254, 2017-08-03 05:48:31, 2120.406892, 6.21834552828, 47.116531667, -117.475106667, True, 57, 12, 9, -0.120230995119, -0.0371490009129, 1.00546300411, 0.53694999218, -0.743000030518, 0.374689996243, 0.153020009398, 0.0652400031686, -0.186200007796, 6.8143157959, -2.11595368385, 81.2290420532, 92.73, True, DATA002.CSV, 2.298, (False, False, False, False)
58.2125, 57.65, 55.2875, 13.667003259, 66.4618530273, 2017-08-03 05:49:03, 2122.047312, 3.11278364854, 47.116533333, -117.475105, True, 76, 22, 9, -0.114252999425, -0.0355019979179, 1.00528001785, 0.116949990392, -0.664250135422, 0.392190009356, 0.154700011015, 0.0688799992204, -0.188299998641, 6.48000478745, -2.02259039879, 80.3190307617, 123.942, True, DATA002.CSV, 4.35, (False, False, False, False)
58.55, 58.4375, 54.725, 13.667510892, 65.5632247925, 2017-08-03 05:49:35, 2125.328152, 6.26456030197, 47.11653, -117.475071667, True, 100, 30, 9, -0.122487999499, -0.0352579988539, 1.0088789463, 0.624450027943, -0.743000030518, 0.400940001011, 0.150640010834, 0.0572600029409, -0.183260008693, 6.91821813583, -2.0015411377, 83.5076217651, 156.673, True, DATA002.CSV, 4.785, (False, False, False, False)
59.225, 59.5625, 53.4875, 13.668743715, 64.9980545044, 2017-08-03 05:50:09, 2126.640488, -0.00408365813437, 47.116528333, -117.475066667, True, 119, 37, 9, -0.119376994669, -0.0368440002203, 1.0087569952, 0.344449996948, -0.664250135422, 0.295939981937, 0.15246000886, 0.0665000006557, -0.175980001688, 6.74457740784, -2.09175014496, 80.7541275024, 192.823, True, DATA002.CSV, 1.799, (False, False, False, False)
59.7875, 60.4625, 53.15, 13.667365854, 63.9603385925, 2017-08-03 05:50:44, 2126.640488, 0.0, 47.116525, -117.475065, True, 137, 44, 9, -0.119376994669, -0.0366000011563, 1.01034295559, 0.615700006485, -0.524250030518, 0.330940008163, 0.15218000114, 0.0697200000286, -0.177100002766, 6.73415994644, -2.07465076447, 79.7055053711, 225.716, True, DATA002.CSV, 2.076, (False, False, False, False)
60.4625, 61.025, 52.8125, 13.6676921895, 62.4660606384, 2017-08-03 05:51:15, 2126.968572, 0.392348366184, 47.116525, -117.475065, True, 157, 51, 9, -0.118888996542, -0.038612999022, 1.01168501377, 0.633199989796, -0.804250121117, 0.252189993858, 0.149240002036, 0.0716800019145, -0.188160002232, 6.69758796692, -2.18574810028, 78.6650161743, 256.837, True, DATA002.CSV, 4.123, (False, False, False, False)
61.025, 61.7, 52.925, 13.669396386, 61.8889808655, 2017-08-03 05:51:48, 2127.62474, 1.1782250159, 47.116528333, -117.475065, True, 180, 56, 9, -0.12529399991, -0.0343430005014, 1.0053409338, 0.493200004101, -0.629250049591, 0.252189993858, 0.146160006523, 0.0674800053239, -0.182280004025, 7.09995079041, -1.95649456978, 79.5378875732, 289.53, True, DATA002.CSV, 4.576, (False, False, False, False)
61.5875, 62.2625, 53.2625, 13.669686462, 61.1564254761, 2017-08-03 05:52:21, 2129.26516, 1.9090408118, 47.116528333, -117.475101667, True, 202, 62, 9, -0.125354990363, -0.0373319983482, 1.00631701946, 0.545700013638, -0.515500068665, 0.182190001011, 0.148680001497, 0.0729399994016, -0.178220003843, 7.09581756592, -2.12456464767, 78.1881790161, 322.38, True, DATA002.CSV, 4.873, (False, False, False, False)
62.0375, 62.825, 53.375, 13.669976538, 59.795715332, 2017-08-03 05:52:57, 2129.921328, 5.81172980545, 47.116525, -117.4751, True, 224, 72, 9, -0.125049993396, -0.0356849990785, 1.00790297985, 0.31819999218, -0.480500102043, 0.182190001011, 0.15175999701, 0.0712600052357, -0.182420000434, 7.06813144684, -2.02772116661, 79.1672592163, 358.787, True, DATA002.CSV, 1.623, (False, False, False, False)
62.6, 63.3875, 53.6, 13.6699402785, 59.2157974243, 2017-08-03 05:53:30, 2130.577496, 1.57081207884, 47.116533333, -117.475098333, True, 244, 82, 9, -0.132126003504, -0.0367220006883, 1.01198995113, 0.291949987411, -0.874250054359, 0.0859400033951, 0.148120000958, 0.0694399997592, -0.175700008869, 7.43365716934, -2.07817554474, 79.2023849487, 391.476, True, DATA002.CSV, 2.095, (False, False, False, False)
63.05, 63.8375, 53.375, 13.669468905, 58.7822990417, 2017-08-03 05:54:01, 2132.546, 3.07561753555, 47.116533333, -117.4751, True, 265, 88, 9, -0.11955999583, -0.0467259995639, 1.00607299805, 0.545700013638, -0.646750092506, 0.190939992666, 0.139300003648, 0.0821800008416, -0.185220003128, 6.76991844177, -2.65913128853, 73.7815322876, 422.614, True, DATA002.CSV, 4.114, (False, False, False, False)
63.3875, 64.4, 53.2625, 13.668091044, 58.4956283569, 2017-08-03 05:54:36, 2132.874084, 2.65320364349, 47.116535, -117.4751, True, 285, 94, 8, -0.142618000507, -0.0265349987894, 1.00723195076, 2.75069999695, 1.15575003624, 0.234690010548, 0.138740003109, 0.0865200012922, -0.191520005465, 8.05640602112, -1.50907814503, 72.3718109131, 457.815, True, DATA002.CSV, 1.885, (False, False, False, False)
63.8375, 64.85, 53.375, 13.668816234, 57.4408569336, 2017-08-03 05:55:09, 2132.874084, 0.362835445313, 47.116535, -117.4751, True, 300, 102, 9, -0.119742996991, -0.0501419976354, 1.01241695881, 0.31819999218, -0.559250116348, 0.278439998627, 0.141120001674, 0.0928200036287, -0.180739998817, 6.73710441589, -2.83537220955, 70.9855575562, 491.17, True, DATA002.CSV, 1.685, (False, False, False, False)
64.175, 65.3, 53.4875, 13.668816234, 57.1533851624, 2017-08-03 05:55:43, 2132.874084, 0.0207035899955, 47.116533333, -117.4751, True, 321, 109, 9, -0.111141994596, -0.0600240007043, 1.00674402714, 1.5869499445, 0.0882499217987, 0.147190004587, 0.144340008497, 0.0958999991417, -0.19376000762, 6.28872060776, -3.41204428673, 70.7197952271, 524.187, True, DATA002.CSV, 2.018, (False, False, False, False)
64.625, 65.75, 53.7125, 13.669686462, 56.8732528687, 2017-08-03 05:56:14, 2133.202168, 0.412524063594, 47.116538333, -117.475108333, True, 341, 114, 9, -0.122304998338, -0.0487389974296, 0.999484956264, 0.790700018406, -0.428000092506, -0.797810018063, 0.141819998622, 0.0900200009346, -0.190120011568, 6.96828937531, -2.79176616669, 71.9147262573, 555.698, True, DATA002.CSV, 3.624, (False, False, False, False)
64.9625, 66.2, 53.825, 13.669976538, 56.2746315002, 2017-08-03 05:56:51, 2133.202168, 0.748087532667, 47.116538333, -117.475108333, True, 365, 122, 9, -0.126818999648, -0.0487999990582, 1.00308394432, 0.449450016022, -0.585500121117, 0.35718998313, 0.132579997182, 0.0932400003076, -0.181299999356, 7.19720029831, -2.78524160385, 69.202293396, 592.189, True, DATA002.CSV, 0.347, (False, False, False, False)
65.3, 66.5375, 53.825, 13.6692876075, 55.5201568604, 2017-08-03 05:57:23, 2133.202168, 3871.72638006, 47.116548333, -117.475106667, True, 16, 5, 9, -0.123525001109, -0.0467869974673, 1.00729298592, 0.309449970722, -0.244250059128, 0.278439998627, 0.141120001674, 0.0911400020123, -0.19334000349, 6.98385715485, -2.65937709808, 71.4642791748, 24.804, True, DATA003.CSV, 4.016, (False, False, False, False)
65.6375, 66.875, 54.05, 13.669758981, 54.9205131531, 2017-08-03 05:57:59, 2133.202168, 0.0, 47.116548333, -117.475106667, True, 36, 11, 9, -0.119742996991, -0.0508130006492, 1.00814700127, 0.405700027943, -0.235500097275, -0.010309997946, 0.140000000596, 0.0967399999499, -0.187460005283, 6.76508331299, -2.88540148735, 69.67552948, 61.009, True, DATA003.CSV, 0.851, (False, False, False, False)
65.975, 67.2125, 53.9375, 13.6704479115, 54.3204078674, 2017-08-03 05:58:30, 2133.202168, -0.0196446710128, 47.116546667, -117.475121667, True, 58, 19, 9, -0.133772999048, -0.0383079983294, 1.01394200325, 1.09694993496, 0.298249959946, 0.400940001011, 0.146720007062, 0.0925400033593, -0.193060010672, 7.51053285599, -2.16367721558, 72.0793304443, 92.068, True, DATA003.CSV, 3.066, (False, False, False, False)
66.2, 67.4375, 54.275, 13.6705204305, 54.3348731995, 2017-08-03 05:59:04, 2133.202168, -0.0196446710128, 47.116546667, -117.475121667, True, 80, 27, 9, -0.114313997328, -0.0729559957981, 1.00619494915, 0.151949986815, -0.428000092506, 0.0771899968386, 0.131459996104, 0.130199998617, -0.19810000062, 6.46476554871, -4.14707756042, 59.595905304, 128.287, True, DATA003.CSV, 0.017, (False, False, False, False)
66.3125, 67.6625, 54.8375, 13.671934551, 54.4976844788, 2017-08-03 05:59:35, 2133.202168, 0.0, 47.116546667, -117.47512, True, 99, 34, 9, -0.108762994409, -0.0746639966965, 1.00552403927, 0.335699975491, -0.489250063896, 0.400940001011, 0.130340009928, 0.142240002751, -0.192919999361, 6.15660524368, -4.24663639069, 56.8202323914, 156.686, True, DATA003.CSV, 4.658, (False, False, False, False)
66.65, 68.0, 55.175, 13.6713181395, 53.7412872314, 2017-08-03 06:00:11, 2133.202168, 0.0, 47.116546667, -117.47512, True, 124, 40, 9, -0.110287994146, -0.0894259959459, 1.00735402107, 0.431950032711, -0.681750059128, 0.173440009356, 0.131180003285, 0.139440000057, -0.187739998102, 6.22373819351, -5.07302856445, 57.5717277527, 192.972, True, DATA003.CSV, 1.666, (False, False, False, False)
66.65, 68.0, 54.725, 13.6720433295, 53.1187400818, 2017-08-03 06:00:42, 2134.18642, 1.11280028587, 47.116553333, -117.475126667, True, 142, 48, 9, 0.0939399972558, -0.0868639945984, 1.00564599037, 0.449450016022, -0.305500030518, 0.0771899968386, 0.356720000505, 0.372680008411, -0.202020004392, -5.31697702408, -4.93674516678, 58.0665092468, 223.964, True, DATA003.CSV, 3.833, (False, False, False, False)
66.65, 67.8875, 54.6125, 13.6721158485, 52.340549469, 2017-08-03 06:01:18, 2134.18642, 1.11280028587, 47.116546667, -117.475141667, True, 169, 56, 9, 0.0955259948969, -0.0861319974065, 1.00802493095, 0.344449996948, -0.375500202179, 0.0159400012344, 0.351400017738, 0.37338000536, -0.204260006547, -5.39395809174, -4.88384914398, 57.582950592, 260.208, True, DATA003.CSV, 0.787, (False, False, False, False)
66.7625, 68.0, 54.725, 13.6716807345, 52.347530365, 2017-08-03 06:01:49, 2134.18642, 0.0, 47.116548333, -117.475141667, True, 184, 62, 9, 0.105224996805, -0.0936959981918, 1.00570702553, 0.650700032711, -0.156750202179, 0.278439998627, 0.348880022764, 0.371560007334, -0.213640004396, -5.94743490219, -5.32255792618, 57.5168762207, 291.271, True, DATA003.CSV, 2.907, (False, False, False, False)
66.875, 68.1125, 54.3875, 13.6725509625, 51.8874664307, 2017-08-03 06:02:26, 2134.18642, 0.0, 47.11655, -117.47514, True, 209, 71, 9, 0.0949769988656, -0.0793000012636, 1.00741493702, 0.204449996352, -0.603000044823, 0.059690002352, 0.357700020075, 0.374500006437, -0.204680010676, -5.36929655075, -4.50083208084, 58.0056037903, 327.391, True, DATA003.CSV, 0.0, (False, False, False, False)
66.9875, 68.225, 54.5, 13.672804779, 51.4272880554, 2017-08-03 06:02:54, 2134.18642, 0.0, 47.11655, -117.47514, True, 226, 76, 9, 0.109738998115, -0.0799710005522, 1.00839102268, 0.379450023174, -0.200500011444, 0.164689987898, 0.361900001764, 0.371280014515, -0.216159999371, -6.19153165817, -4.53438282013, 58.5870170593, 358.49, True, DATA003.CSV, 2.081, (False, False, False, False)
67.1, 68.3375, 54.8375, 13.672369665, 51.1226997375, 2017-08-03 06:03:28, 2134.18642, -0.0209751029826, 47.116561667, -117.475141667, True, 248, 85, 9, 0.109067998827, -0.0805810019374, 1.00473093987, 0.291949987411, -0.174250125885, 0.182190001011, 0.36371999979, 0.372820019722, -0.214340001345, -6.17577457428, -4.58539628983, 58.6121330261, 389.69, True, DATA003.CSV, 4.047, (False, False, False, False)
67.2125, 68.5625, 54.95, 13.672079589, 50.5065574646, 2017-08-03 06:04:04, 2134.18642, -0.0209751029826, 47.116561667, -117.475141667, True, 271, 91, 9, 0.110105000436, -0.0801540017128, 1.01009893417, 0.431950032711, -0.253000020981, 0.129689991474, 0.366100013256, 0.368760019541, -0.213360011578, -6.20157527924, -4.5370631218, 59.1125984192, 425.836, True, DATA003.CSV, 1.058, (False, False, False, False)
67.325, 68.7875, 54.6125, 13.672079589, 50.3575325012, 2017-08-03 06:04:35, 2134.18642, 0.0, 47.116561667, -117.47514, True, 287, 102, 9, 0.110775999725, -0.0801540017128, 1.00680494308, 0.633199989796, -0.454250097275, 0.120939999819, 0.369460016489, 0.369599997997, -0.208599999547, -6.2591958046, -4.5518450737, 59.3091468811, 456.951, True, DATA003.CSV, 3.13, (False, False, False, False)
67.55, 68.9, 54.5, 13.672152108, 49.7477416992, 2017-08-03 06:05:11, 2133.858336, -0.37090452346, 47.116561667, -117.47514, True, 309, 108, 9, 0.105285994709, -0.0809469968081, 1.00808596611, 0.0469499975443, -0.480500102043, 0.0509399995208, 0.363440006971, 0.36918002367, -0.223580002785, -5.9434466362, -4.59086942673, 58.8710975647, 493.19, True, DATA003.CSV, 0.067, (False, False, False, False)
67.775, 69.0125, 54.6125, 13.6716082155, 49.2934799194, 2017-08-03 06:05:42, 2134.18642, 0.391256355983, 47.11656, -117.475138333, True, 327, 118, 9, 0.126697003841, -0.0192149989307, 1.00454795361, 0.353200018406, -0.340500116348, 0.103440001607, 0.493640005589, 0.333620011806, -0.208740010858, -7.18708229065, -1.09582030773, 70.2677230835, 524.204, True, DATA003.CSV, 2.209, (False, False, False, False)
67.8875, 69.125, 54.6125, 13.6713906585, 49.1441955566, 2017-08-03 06:06:13, 2134.18642, 0.391256355983, 47.11656, -117.475138333, True, 349, 124, 9, 0.129441991448, -0.0212280005217, 1.01058697701, 0.563199996948, -0.47175014019, 0.147190004587, 0.496020019054, 0.338520020247, -0.208740010858, -7.2974486351, -1.2033560276, 70.0075378418, 555.206, True, DATA003.CSV, 4.365, (False, False, False, False)
68.1125, 69.2375, 54.95, 13.670121576, 49.1573143005, 2017-08-03 06:06:50, 2134.18642, 0.0, 47.116558333, -117.475138333, True, 367, 130, 9, 0.130661994219, -0.0183000005782, 1.0070489645, 0.344449996948, -0.375500202179, 0.138440012932, 0.490840017796, 0.33166000247, -0.213360011578, -7.3914732933, -1.04105913639, 70.273147583, 591.495, True, DATA003.CSV, 1.228, (False, False, False, False)
68.225, 69.35, 55.175, 13.671209361, 48.6960983276, 2017-08-03 06:07:23, 2134.842588, 2554.65296946, 47.116565, -117.475121667, True, 18, 7, 9, 0.131637990475, -0.0201909989119, 1.00601196289, -0.0230500027537, -0.288000106812, 0.094690002501, 0.487900018692, 0.330819994211, -0.212940007448, -7.45338821411, -1.14979124069, 70.180809021, 24.941, True, DATA004.CSV, 3.877, (False, False, False, False)
68.3375, 69.575, 55.175, 13.6702303545, 48.2347488403, 2017-08-03 06:07:59, 2134.842588, 0.0, 47.116563333, -117.475123333, True, 41, 13, 9, 0.127977997065, -0.0225699990988, 1.00808596611, 0.458200037479, -0.200500011444, 0.0334400013089, 0.48860001564, 0.333480000496, -0.203140005469, -7.2332868576, -1.28257882595, 70.0056228638, 61.029, True, DATA004.CSV, 0.954, (False, False, False, False)
68.5625, 69.6875, 55.5125, 13.670049057, 48.0916442871, 2017-08-03 06:08:30, 2134.842588, 0.0, 47.116563333, -117.475121667, True, 57, 20, 9, 0.126514002681, -0.0201299991459, 1.00601196289, 0.388199985027, -0.323000192642, 0.190939992666, 0.495180010796, 0.335160017014, -0.197120010853, -7.1663517952, -1.14631843567, 70.2280960083, 91.984, True, DATA004.CSV, 3.096, (False, False, False, False)
68.7875, 69.8, 55.7375, 13.6700853165, 47.6363983154, 2017-08-03 06:09:06, 2135.170672, 0.37090452346, 47.116561667, -117.475121667, True, 80, 25, 9, 0.130235001445, -0.0167749989778, 1.00686597824, 0.335699975491, -0.0429999828339, 0.155939996243, 0.487900018692, 0.334040015936, -0.208039999008, -7.36910009384, -0.9544942379, 69.9225616455, 128.401, True, DATA004.CSV, 0.0, (False, False, False, False)
68.9, 70.025, 55.2875, 13.670121576, 47.1746063232, 2017-08-03 06:09:38, 2135.170672, 0.37090452346, 47.116561667, -117.47512, True, 98, 32, 8, 0.132918998599, -0.0222650002688, 1.00857400894, 0.309449970722, -0.305500030518, 0.0771899968386, 0.496720016003, 0.33166000247, -0.206360012293, -7.50588226318, -1.26464021206, 70.5889587402, 159.762, True, DATA004.CSV, 1.801, (False, False, False, False)
69.0125, 70.1375, 55.625, 13.670701728, 47.4930610657, 2017-08-03 06:10:09, 2135.170672, 0.0, 47.116555, -117.475116667, True, 119, 35, 9, 0.127794995904, -0.017506999895, 1.00460898876, 0.571950018406, -0.156750202179, 0.120939999819, 0.48902001977, 0.329420000315, -0.209860011935, -7.24849510193, -0.998374164104, 70.3544921875, 191.15, True, DATA004.CSV, 3.57, (False, False, False, False)
69.2375, 70.3625, 56.1875, 13.6705929495, 47.193523407, 2017-08-03 06:10:41, 2135.170672, 0.0, 47.116556667, -117.475116667, True, 137, 41, 9, 0.12736800313, -0.0222040005028, 1.00747597218, 0.265699982643, -0.331750154495, 0.00719000026584, 0.489440023899, 0.332640022039, -0.206360012293, -7.20354127884, -1.26255083084, 70.1186447144, 222.885, True, DATA004.CSV, 4.958, (False, False, False, False)
69.35, 70.5875, 56.075, 13.670919285, 46.5752830505, 2017-08-03 06:11:18, 2135.170672, 0.0, 47.116556667, -117.475116667, True, 156, 50, 10, 0.131637990475, -0.0195809993893, 1.00107097626, 0.47570002079, -0.130500078201, 0.0334400013089, 0.488880008459, 0.338660001755, -0.214340001345, -7.48983478546, -1.12056541443, 69.6086425781, 260.013, True, DATA004.CSV, 0.999, (False, False, False, False)
69.575, 70.7, 56.525, 13.671644475, 46.4315567017, 2017-08-03 06:11:49, 2135.498756, 0.361856114835, 47.116556667, -117.475118333, True, 174, 55, 10, 0.131089001894, -0.0200689993799, 1.00491392612, 0.431950032711, -0.296750068665, -0.0628099963069, 0.493780016899, 0.331520020962, -0.197680011392, -7.43068599701, -1.14409410954, 70.4428939819, 291.687, True, DATA004.CSV, 2.548, (False, False, False, False)
69.6875, 70.925, 56.8625, 13.6716082155, 46.5939750671, 2017-08-03 06:12:23, 2135.498756, 0.0, 47.116558333, -117.475118333, True, 200, 63, 9, 0.13102799654, -0.0193980000913, 1.00412094593, 0.14319999516, -0.366750001907, 0.0159400012344, 0.492520004511, 0.334040015936, -0.21196000278, -7.43316221237, -1.10672450066, 70.1738433838, 325.249, True, DATA004.CSV, 2.155, (False, False, False, False)
69.9125, 71.0375, 56.75, 13.67200707, 46.6064414978, 2017-08-03 06:12:54, 2135.498756, 0.0, 47.116556667, -117.475118333, True, 219, 69, 10, 0.128160998225, -0.0205569993705, 1.00393795967, 0.598200023174, -0.174250125885, 0.199690014124, 0.492100000381, 0.335580021143, -0.207200005651, -7.27342367172, -1.1730452776, 70.0285644531, 356.476, True, DATA004.CSV, 4.079, (False, False, False, False)
70.025, 71.2625, 56.8625, 13.6731311145, 45.8313598633, 2017-08-03 06:13:30, 2135.498756, 0.0, 47.116556667, -117.475118333, True, 241, 81, 10, 0.130235001445, -0.0204959996045, 1.00723195076, 0.0469499975443, -0.349250078201, 0.112190000713, 0.497420012951, 0.330540001392, -0.221760004759, -7.36595487595, -1.16574156284, 70.7156066895, 392.657, True, DATA004.CSV, 1.052, (False, False, False, False)
70.1375, 71.375, 56.525, 13.672877298, 46.1500663757, 2017-08-03 06:14:01, 2135.498756, 0.0, 47.116558333, -117.475118333, True, 258, 85, 10, 0.128893002868, -0.0187269989401, 1.00235199928, 0.353200018406, -0.296750068665, 0.0159400012344, 0.494480013847, 0.335440009832, -0.207200005651, -7.32622003555, -1.07033574581, 70.1682357788, 423.645, True, DATA004.CSV, 3.173, (False, False, False, False)
70.475, 71.6, 56.1875, 13.67345745, 45.5432090759, 2017-08-03 06:14:38, 2135.498756, 0.0, 47.116558333, -117.475118333, True, 281, 94, 10, 0.130418002605, -0.0228749997914, 1.00839102268, 0.484449982643, -0.0342500209808, 0.0859400033951, 0.491960018873, 0.333340018988, -0.194320008159, -7.36743927002, -1.29951190948, 70.1993942261, 460.003, True, DATA004.CSV, 0.03, (False, False, False, False)
70.5875, 71.7125, 56.3, 13.6737837855, 45.3929405212, 2017-08-03 06:15:09, 2135.498756, 0.0, 47.116556667, -117.475118333, True, 302, 98, 10, 0.132980003953, -0.0214109998196, 1.00753700733, 0.598200023174, -0.0429999828339, -0.0278099998832, 0.488180011511, 0.332780003548, -0.204539999366, -7.51705980301, -1.21739971638, 70.0387268066, 490.987, True, DATA004.CSV, 2.223, (False, False, False, False)
70.7, 71.825, 56.1875, 13.674400197, 45.5554084778, 2017-08-03 06:15:40, 2135.498756, 0.0, 47.116556667, -117.475118333, True, 319, 103, 10, 0.13328500092, -0.0212280005217, 1.00509703159, 0.466949999332, -0.121750116348, 0.164689987898, 0.489160001278, 0.337119996548, -0.196000009775, -7.55220270157, -1.20992684364, 69.7461013794, 522.085, True, DATA004.CSV, 4.234, (False, False, False, False)
70.8125, 72.1625, 56.4125, 13.674545235, 45.0922813416, 2017-08-03 06:16:16, 2135.498756, 0.0, 47.116556667, -117.475118333, True, 342, 110, 10, 0.130601003766, -0.0208620000631, 1.00314497948, 0.265699982643, -0.139250040054, 0.112190000713, 0.495320022106, 0.333620011806, -0.214900001884, -7.41611814499, -1.19138538837, 70.3579788208, 558.637, True, DATA004.CSV, 0.852, (False, False, False, False)
71.0375, 72.275, 56.1875, 13.6742188995, 44.7914657593, 2017-08-03 06:16:48, 2135.498756, 0.0190049193963, 47.116556667, -117.475118333, True, 362, 116, 10, 0.149876996875, -0.0161039996892, 0.990152001381, 1.35069990158, -0.270500183105, -0.054059997201, 0.501060009003, 0.330119997263, -0.211260005832, -8.60626602173, -0.931786000729, 70.9413833618, 590.435, True, DATA004.CSV, 2.183, (False, False, False, False)
71.15, 72.3875, 56.4125, 13.6729135575, 44.9539375305, 2017-08-03 06:17:22, 2135.170672, 3837.92620239, 47.116556667, -117.475118333, True, 16, 5, 10, 0.129930004478, -0.0227530002594, 1.00564599037, 0.204449996352, -0.270500183105, 0.217189997435, 0.49728000164, 0.331239998341, -0.203979998827, -7.35999965668, -1.29611063004, 70.6522750854, 24.829, True, DATA005.CSV, 3.989, (False, False, False, False)
71.375, 72.6125, 57.65, 13.6729860765, 44.8094749451, 2017-08-03 06:17:56, 2135.170672, 0.0, 47.116553333, -117.475093333, True, 41, 12, 7, 0.13224799931, -0.0101260002702, 1.00820803642, 0.151949986815, -0.0605001449585, 0.217189997435, 0.503300011158, 0.333059996367, -0.213640004396, -7.47252702713, -0.575434327126, 70.825302124, 58.276, True, DATA005.CSV, 3.698, (False, False, False, False)
71.4875, 72.725, 57.425, 13.672369665, 44.3458747864, 2017-08-03 06:18:32, 2134.18642, -1.12077297783, 47.11656, -117.475096667, True, 58, 19, 10, 0.137127995491, -0.0250709988177, 1.01211202145, 0.274450004101, -0.104250192642, 0.094690002501, 0.49350002408, 0.335020005703, -0.200760006905, -7.71350955963, -1.41898190975, 70.1487808228, 94.546, True, DATA005.CSV, 0.495, (False, False, False, False)
71.6, 72.95, 57.875, 13.672587222, 44.6649360657, 2017-08-03 06:19:03, 2133.858336, -1.1409412045, 47.116556667, -117.475086667, True, 80, 26, 10, 0.13102799654, -0.0222650002688, 1.00893998146, 0.484449982643, 0.0182499885559, 0.278439998627, 0.499660015106, 0.332780003548, -0.201740011573, -7.39763641357, -1.26418161392, 70.6558685303, 125.601, True, DATA005.CSV, 2.675, (False, False, False, False)
71.825, 73.0625, 57.2, 13.672369665, 44.0505218506, 2017-08-03 06:19:34, 2133.858336, -0.414244944439, 47.116556667, -117.475086667, True, 96, 32, 10, 0.133468002081, -0.0220209993422, 1.00460898876, 0.265699982643, -0.244250059128, 0.0509399995208, 0.498540014029, 0.330400019884, -0.205940008163, -7.56595563889, -1.2557207346, 70.7861557007, 156.675, True, DATA005.CSV, 4.752, (False, False, False, False)
71.9375, 73.175, 57.5375, 13.6740013425, 44.2130470276, 2017-08-03 06:20:10, 2133.858336, 0.0, 47.116556667, -117.475086667, True, 119, 42, 9, 0.128831997514, -0.0251320004463, 1.01144099236, 0.423200011253, -0.0692501068115, 0.0334400013089, 0.491120010614, 0.335440009832, -0.209160000086, -7.2567281723, -1.42337632179, 69.9865188599, 193.072, True, DATA005.CSV, 1.529, (False, False, False, False)
72.1625, 73.5125, 57.2, 13.6704479115, 43.7549285889, 2017-08-03 06:20:39, 2133.858336, 0.0501102620459, 47.11656, -117.475101667, True, 136, 47, 10, 0.0469090007246, 0.0111020002514, 0.973559975624, 1.78819990158, 3.33450007439, -5.79405975342, 0.573300004005, 0.156939998269, -0.218680009246, -2.75836753845, 0.65334457159, 89.0104293823, 224.084, True, DATA005.CSV, 3.671, (False, False, False, False)
72.3875, 73.9625, 66.2, 13.5001732995, 43.2965621948, 2017-08-03 06:21:18, 2398.950208, 307.84104197, 47.116093333, -117.475925, True, 160, 55, 10, 0.0439810007811, -0.000609999988228, 1.01534497738, -2.21055006981, 2.66075015068, 25.0584392548, 0.547960042953, 0.0448000021279, -0.221900001168, -2.48029112816, -0.034422211349, 99.6460113525, 260.24, True, DATA005.CSV, 0.688, (False, False, False, False)
72.6125, 74.1875, 73.175, 13.302595284, 43.6216697693, 2017-08-03 06:21:49, 2893.372796, 871.396574736, 47.115496667, -117.477791667, True, 181, 60, 10, 0.0400159992278, -0.00969900004566, 1.01583302021, -2.37680006027, 1.04199981689, 14.1209392548, 0.528500020504, 0.259560018778, -0.211820006371, -2.25574350357, -0.54703360796, 78.1631469727, 291.355, True, DATA005.CSV, 2.744, (False, False, False, False)
72.8375, 74.525, 74.8625, 13.1051623065, 43.3198127747, 2017-08-03 06:22:20, 3328.740264, 859.761208153, 47.114955, -117.480416667, True, 199, 67, 10, 0.0411750003695, 0.00182999996468, 1.03071701527, 1.77069997787, -0.156750202179, 15.8534393311, 0.454439997673, 0.311500012875, -0.225400000811, -2.28762698174, 0.101726427674, 69.890953064, 322.565, True, DATA005.CSV, 4.691, (False, False, False, False)
72.95, 74.75, 76.775, 12.8762198235, 42.6983909607, 2017-08-03 06:22:56, 3838.254716, 854.536472559, 47.115256667, -117.481786667, True, 224, 74, 10, 0.0492269992828, -0.0056119998917, 1.02400696278, -0.766799986362, -0.113000154495, 5.79969024658, 0.497420012951, 0.283639997244, -0.22582000494, -2.75221467018, -0.314002424479, 74.627243042, 358.729, True, DATA005.CSV, 1.696, (False, False, False, False)
73.0625, 74.8625, 76.2125, 12.6825940935, 43.1746139526, 2017-08-03 06:23:27, 4268.37284, 823.040314865, 47.115661667, -117.48183, True, 240, 83, 9, 0.044224999845, -0.00219599995762, 1.00863492489, 0.650700032711, -0.550500035286, -4.84906005859, 0.219940006733, 0.0592200011015, -0.221340000629, -2.51059889793, -0.124744169414, 89.2501983643, 389.725, True, DATA005.CSV, 3.86, (False, False, False, False)
73.0625, 74.975, 74.6375, 12.4440791025, 42.5473022461, 2017-08-03 06:24:03, 4784.777056, 894.645906591, 47.116118333, -117.482208333, True, 266, 92, 10, 0.0352579988539, -0.00536799989641, 1.02351903915, -0.0143000036478, 1.54949998856, -18.5078105927, 0.307860016823, 0.336840003729, -0.226240009069, -1.97290730476, -0.300493597984, 56.746219635, 426.027, True, DATA005.CSV, 0.711, (False, False, False, False)
73.175, 74.975, 72.6125, 12.2340640785, 42.7098617554, 2017-08-03 06:24:34, 5291.338752, 918.41816256, 47.116296667, -117.48269, True, 281, 95, 10, 0.0396500006318, -0.0069539998658, 0.99680095911, 0.773200035095, 1.11199998856, -19.3828105927, 0.203140005469, 0.219099998474, -0.235480010509, -2.27781200409, -0.399707049131, 57.1553421021, 457.016, True, DATA005.CSV, 2.884, (False, False, False, False)
73.2875, 75.0875, 70.025, 11.999356335, 42.2449798584, 2017-08-03 06:25:11, 5850.393888, 922.1219033, 47.11634, -117.48373, True, 307, 104, 10, 0.0417849980295, 0.00195199996233, 0.999545991421, 1.49944996834, -0.498000144958, 16.7634391785, 0.538580000401, 0.27244001627, -0.213080003858, -2.39379286766, 0.111892014742, 77.4874801636, 493.208, True, DATA005.CSV, 0.0, (False, False, False, False)
73.4, 75.2, 67.4375, 11.8054767885, 41.9368743896, 2017-08-03 06:25:39, 6263.451644, 843.462045574, 47.11641, -117.484801667, True, 323, 109, 10, 0.0375759974122, -0.00439199991524, 1.0314489603, -0.364300012589, 3.62324976921, 13.7184400558, 0.541379988194, 0.00490000005811, -0.209300011396, -2.08636069298, -0.243968948722, 103.801422119, 524.41, True, DATA005.CSV, 1.953, (False, False, False, False)
73.625, 75.425, 65.4125, 11.6172174645, 41.6342735291, 2017-08-03 06:26:13, 6760.498904, 875.186483908, 47.116465, -117.485778333, True, 343, 119, 10, 0.0336719974875, 0.0101260002702, 1.01461303234, -0.539300024509, 0.0969998836517, 18.4171905518, 0.427280008793, 0.285040020943, -0.235200002789, -1.90068471432, 0.571802020073, 70.6126022339, 555.412, True, DATA005.CSV, 4.116, (False, False, False, False)
73.7375, 75.5375, 63.1625, 11.395055508, 41.9537811279, 2017-08-03 06:26:49, 7297.244328, 875.05967176, 47.116515, -117.486825, True, 365, 125, 10, 0.0478239990771, -0.00481900013983, 1.00973296165, -1.26555001736, -1.90675008297, -16.7840595245, 0.485380023718, 0.234500005841, -0.220640003681, -2.71164321899, -0.273444831371, 78.5335693359, 591.673, True, DATA005.CSV, 1.003, (False, False, False, False)
73.9625, 75.65, 61.475, 11.2054545825, 41.8080558777, 2017-08-03 06:27:22, 7766.404448, 13860.8129631, 47.116303333, -117.487661667, True, 15, 5, 10, 0.0434319972992, -0.0126879997551, 1.02968001366, -2.08804988861, 0.219499826431, -0.0190600007772, 0.430079996586, 0.306460022926, -0.220080003142, -2.41512608528, -0.705978512764, 68.8476486206, 24.935, True, DATA006.CSV, 3.885, (False, False, False, False)
74.075, 75.875, 59.1125, 11.0017487115, 41.9707069397, 2017-08-03 06:27:56, 8275.9189, 891.231083536, 47.115981667, -117.48892, True, 38, 14, 10, 0.0354410000145, -0.0054289996624, 1.03596293926, -0.443050026894, 5.38199996948, -9.04906082153, 0.192640006542, 0.172059997916, -0.220219999552, -1.95933675766, -0.300257742405, 62.5497703552, 58.429, True, DATA006.CSV, 3.554, (False, False, False, False)
74.1875, 75.9875, 56.75, 10.798659252, 41.5052261353, 2017-08-03 06:28:29, 8776.903168, 900.326264811, 47.115786667, -117.489758333, True, 55, 18, 10, 0.032634999603, -0.00439199991524, 1.0297409296, 4.07195043564, -2.39675021172, -7.78031015396, 0.492660015821, 0.309819996357, -0.212380006909, -1.81521856785, -0.244373619556, 72.1553726196, 91.904, True, DATA006.CSV, 3.255, (False, False, False, False)
74.4125, 76.2125, 54.1625, 10.581464847, 41.5163917542, 2017-08-03 06:29:05, 9346.456992, 932.836731958, 47.115445, -117.490818333, True, 77, 24, 10, 0.052216000855, -0.0157989989966, 1.04267299175, -4.4767999649, -3.18425011635, 5.44969034195, 0.490280002356, 0.0334600023925, -0.219520002604, -2.86659049988, -0.868102133274, 100.415794373, 128.2, True, DATA006.CSV, 0.107, (False, False, False, False)
74.525, 76.325, 52.025, 10.386678813, 40.7364616394, 2017-08-03 06:29:34, 9808.07118, 900.631702805, 47.115045, -117.491891667, True, 94, 32, 10, 0.05056899786, -0.0202520005405, 1.02772796154, -6.24429988861, -5.81799983978, 14.4796895981, 0.293579995632, 0.346080005169, -0.2165800035, -2.81640076637, -1.12890183926, 54.6279678345, 159.312, True, DATA006.CSV, 2.17, (False, False, False, False)
74.75, 76.55, 51.0125, 10.2062152815, 41.3760032654, 2017-08-03 06:30:07, 10292.323164, 893.135800123, 47.114581667, -117.492685, True, 109, 41, 10, 0.044712997973, 0.0129319997504, 0.980452954769, -0.364300012589, 3.69324994087, 21.9259395599, 0.344960004091, 0.272720009089, -0.237160012126, -2.61090517044, 0.75567728281, 65.9906463623, 190.307, True, DATA006.CSV, 4.372, (False, False, False, False)
74.8625, 76.6625, 51.2375, 10.0019292585, 40.910068512, 2017-08-03 06:30:44, 10887.795624, 985.796526241, 47.113941667, -117.49305, True, 136, 44, 9, 0.0466649979353, -0.00262299994938, 1.00893998146, -5.08054971695, 0.604499816895, -9.18031024933, 0.513240039349, -0.00980000011623, -0.222460001707, -2.64811992645, -0.148954823613, 105.413887024, 226.475, True, DATA006.CSV, 1.281, (False, False, False, False)
74.8625, 76.6625, 51.6875, 9.8235325185, 40.7529067993, 2017-08-03 06:31:15, 11376.968868, 922.294146299, 47.113458333, -117.492848333, True, 151, 51, 9, 0.0275109987706, -0.00530700013041, 1.02327501774, -1.2568000555, 5.89824962616, -0.640309989452, 0.314300000668, 0.342720001936, -0.219240009785, -1.54001927376, -0.297149777412, 56.8431587219, 257.638, True, DATA006.CSV, 3.382, (False, False, False, False)
74.975, 76.775, 50.0, 9.6235251165, 40.2868270874, 2017-08-03 06:31:51, 11926.181484, 925.924859762, 47.112451667, -117.492561667, True, 176, 57, 10, 0.0488610006869, -0.00677100010216, 1.02571499348, 2.96944999695, -4.1905002594, -7.91156005859, 0.554820001125, 0.186060011387, -0.210560008883, -2.72722291946, -0.378218173981, 85.7810134888, 293.897, True, DATA006.CSV, 0.255, (False, False, False, False)
75.2, 77.0, 48.3125, 9.4618802655, 40.7693634033, 2017-08-03 06:32:22, 12393.3731, 900.522725081, 47.111723333, -117.49198, True, 193, 64, 10, 0.055936999619, -0.0126879997551, 1.0356580019, -0.758049964905, -6.39550018311, 8.32843971252, 0.383880019188, 0.0197400003672, -0.222040012479, -3.09137105942, -0.701903939247, 101.376304626, 324.902, True, DATA006.CSV, 2.424, (False, False, False, False)
75.3125, 77.225, 45.95, 9.295267863, 40.14585495, 2017-08-03 06:32:53, 12872.703824, 915.195575833, 47.110905, -117.49108, True, 217, 72, 10, 0.0367829985917, -0.0122609995306, 1.0313270092, 0.25695002079, -5.7217502594, -17.2478103638, 0.547399997711, 0.274120002985, -0.220920011401, -2.04248404503, -0.681132555008, 77.7197799683, 355.958, True, DATA006.CSV, 4.551, (False, False, False, False)
75.3125, 77.225, 45.275, 9.103237551, 39.8313484192, 2017-08-03 06:33:29, 13416.667096, 901.662157106, 47.110303333, -117.490281667, True, 236, 77, 9, 0.0433709993958, -0.0105529995635, 1.00906193256, -2.90180015564, 3.54450011253, -13.1003103256, 0.29050001502, 0.269780009985, -0.238000005484, -2.46100950241, -0.599190413952, 61.437915802, 392.273, True, DATA006.CSV, 1.403, (False, False, False, False)
75.425, 77.225, 45.275, 8.942753004, 40.3085289001, 2017-08-03 06:34:00, 13899.934828, 916.093586063, 47.109498333, -117.489508333, True, 259, 86, 10, 0.0338549986482, -0.0123829999939, 1.02803301811, -0.058050006628, -0.699250102043, -14.8328104019, 0.220080003142, 0.280980020761, -0.23506000638, -1.8860360384, -0.69011336565, 52.39012146, 423.285, True, DATA006.CSV, 3.569, (False, False, False, False)
75.5375, 77.3375, 43.475, 8.751520401, 39.6847877502, 2017-08-03 06:34:34, 14437.664504, 881.361888218, 47.108765, -117.488738333, True, 281, 94, 10, 0.0379419997334, 0.00219599995762, 1.03590202332, 6.79320001602, -5.31050014496, 13.6746892929, 0.528780043125, 0.111579999328, -0.235760003328, -2.09763073921, 0.121460646391, 92.4045791626, 459.591, True, DATA006.CSV, 0.423, (False, False, False, False)
75.65, 77.5625, 41.5625, 8.5862496, 40.0047607422, 2017-08-03 06:35:08, 14972.769508, 950.256647348, 47.108083333, -117.487458333, True, 302, 102, 10, 0.0448959991336, -0.00896700005978, 1.01345396042, -2.53430008888, -4.38300037384, -6.47656011581, 0.224140003324, 0.148120000958, -0.234920009971, -2.536444664, -0.506937503815, 70.8617935181, 490.716, True, DATA006.CSV, 2.472, (False, False, False, False)
75.7625, 77.675, 39.9875, 8.4265265025, 39.3808059692, 2017-08-03 06:35:39, 15484.580548, 1031.00754447, 47.107291667, -117.486865, True, 322, 106, 11, 0.0371490009129, -0.0013419999741, 1.02754497528, -4.27554988861, -4.95174980164, 3.71719002724, 0.472780019045, 0.0345799997449, -0.231980010867, -2.07052016258, -0.0748296976089, 100.13671875, 521.706, True, DATA006.CSV, 4.662, (False, False, False, False)
75.7625, 77.7875, 37.2875, 8.2549465485, 39.6954803467, 2017-08-03 06:36:12, 16019.029384, 983.217762256, 47.106128333, -117.486206667, True, 341, 113, 11, 0.0428829975426, -0.00719799986109, 1.0070489645, -2.67429995537, 4.05200004578, -14.010310173, 0.459619998932, 0.336980015039, -0.204680010676, -2.43828105927, -0.409521251917, 68.0722122192, 555.19, True, DATA006.CSV, 4.361, (False, False, False, False)
76.1, 78.0125, 34.925, 8.0858685, 39.3967247009, 2017-08-03 06:36:49, 16604.003156, 1009.36518817, 47.105128333, -117.48464, True, 368, 120, 11, 0.0333059988916, 0.00170799996704, 1.01949298382, 4.62320041656, 2.83574986458, 13.0009393692, 0.223860010505, 0.211400002241, -0.231140002608, -1.87113785744, 0.0959899574518, 60.959728241, 591.516, True, DATA006.CSV, 1.202, (False, False, False, False)
76.1, 78.0125, 32.7875, 7.930967916, 39.0819320679, 2017-08-03 06:37:19, 17062.664588, 30654.67771, 47.103731667, -117.483575, True, 13, 5, 11, 0.0375149995089, -0.000731999985874, 1.02229893208, -1.12555003166, 2.92324995995, -2.01405978203, 0.172480002046, 0.211120009422, -0.217980012298, -2.10162258148, -0.0410256721079, 53.5680007935, 24.822, True, DATA007.CSV, 4.0, (False, False, False, False)
76.2125, 78.2375, 30.2, 7.757067354, 39.2446212769, 2017-08-03 06:37:55, 17670.276156, 979.095851183, 47.102125, -117.481601667, True, 32, 13, 11, 0.038368999958, -0.000914999982342, 1.01089203358, 2.3219499588, 3.92074990273, 36.2496910095, 0.312340021133, -0.0639799982309, -0.201460003853, -2.17365050316, -0.0518607497215, 115.896362305, 58.244, True, DATA007.CSV, 3.732, (False, False, False, False)
76.4375, 78.35, 27.8375, 7.590128616, 38.7828102112, 2017-08-03 06:38:29, 18234.90872, 1193.47343018, 47.100428333, -117.47896, True, 55, 18, 11, 0.0328180007637, -0.00921100005507, 1.00448703766, -1.8343000412, 4.13074970245, 3.49844002724, 0.163520008326, 0.241360008717, -0.198800012469, -1.87118935585, -0.525379180908, 48.437412262, 91.841, True, DATA007.CSV, 3.296, (False, False, False, False)
76.325, 78.35, 26.0375, 7.4211230865, 38.4626960754, 2017-08-03 06:39:05, 18807.743384, 975.74579525, 47.098675, -117.475623333, True, 75, 27, 11, 0.0312319993973, -0.000365999992937, 1.00473093987, 0.939449965954, 7.55200004578, -21.0803108215, 0.391019999981, 0.376320004463, -0.212800011039, -1.78046214581, -0.0208715088665, 60.4174804688, 128.208, True, DATA007.CSV, 0.08, (False, False, False, False)
76.55, 78.4625, 23.3375, 7.260529761, 38.1581077576, 2017-08-03 06:39:39, 19379.92188, 1055.30075338, 47.096971667, -117.47223, True, 100, 35, 11, 0.0312319993973, -0.00725900009274, 0.997044980526, 2.26069998741, -5.77425003052, 4.27719020844, 0.233100011945, 0.318780004978, -0.210560008883, -1.79413092136, -0.417135357857, 50.4952163696, 161.709, True, DATA007.CSV, 0.0, (False, False, False, False)
76.55, 78.575, 20.75, 7.1182837425, 37.6856460571, 2017-08-03 06:40:09, 19790.683048, 891.146604681, 47.09524, -117.46932, True, 114, 42, 11, 0.0253149997443, -0.000792999984697, 1.02876496315, 5.90070009232, 6.88700008392, -2.09280991554, 0.229180008173, 0.131600007415, -0.238140001893, -1.40960252285, -0.0441651344299, 74.4546432495, 192.685, True, DATA007.CSV, 2.184, (False, False, False, False)
76.55, 78.575, 19.2875, 6.986843055, 37.6856460571, 2017-08-03 06:40:41, 20366.470468, 967.812198234, 47.093786667, -117.466928333, True, 137, 52, 11, 0.0421510003507, -0.00219599995762, 0.99972897768, 1.95444989204, -6.56175041199, -12.1815605164, 0.4880400002, -0.0898800045252, -0.176540002227, -2.41429328918, -0.125855430961, 114.754959106, 223.783, True, DATA007.CSV, 4.271, (False, False, False, False)
76.55, 78.6875, 15.35, 6.6923071365, 37.2131919861, 2017-08-03 06:41:50, 21431.431132, 935.776877713, 47.090495, -117.460658333, True, 177, 66, 12, 0.0496539995074, -0.00957699958235, 1.01680898666, -6.6030497551, -6.78925037384, 7.73343992233, 0.477260023355, 0.181580007076, -0.246959999204, -2.79558944702, -0.53963470459, 83.4899978638, 293.409, True, DATA007.CSV, 0.87, (False, False, False, False)
76.6625, 78.8, 13.2125, 6.559851183, 36.9032020569, 2017-08-03 06:42:22, 21940.289416, 995.551675105, 47.088665, -117.457236667, True, 194, 74, 12, 0.038978997618, -0.00902799982578, 1.06426692009, 14.0119504929, 10.0369997025, 17.8309402466, 0.387940019369, -0.0513800010085, -0.201740011573, -2.09745693207, -0.486018955708, 111.864517212, 325.528, True, DATA007.CSV, 2.038, (False, False, False, False)
76.6625, 78.6875, 11.525, 6.43533606, 37.3757209778, 2017-08-03 06:42:53, 22417.651636, 910.865940642, 47.087295, -117.45345, True, 213, 80, 12, 0.0348309986293, 0.00512399990112, 1.08482396603, 16.7856998444, 1.72449994087, -42.4828109741, 0.229740008712, 0.0511000007391, -0.21686001122, -1.83897256851, 0.270625799894, 91.7800979614, 356.639, True, DATA007.CSV, 4.09, (False, False, False, False)
76.775, 78.8, 10.7375, 6.3158610075, 37.2232322693, 2017-08-03 06:43:29, 22809.383932, 723.757854486, 47.085315, -117.449028333, True, 231, 88, 12, 0.0258639995009, -0.0129929995164, 1.02418994904, -1.74680006504, 4.11324977875, -62.2140617371, 0.458080023527, 0.316819995642, -0.215039998293, -1.4464738369, -0.726822257042, 69.651260376, 392.788, True, DATA007.CSV, 1.091, (False, False, False, False)
76.6625, 78.8, 9.275, 6.1892428335, 36.4306793213, 2017-08-03 06:44:00, 23346.785524, 818.763995218, 47.083098333, -117.445103333, True, 253, 97, 12, 0.0394669994712, -0.0130540002137, 1.03260803223, -5.7455496788, -5.86175012589, 1.6171900034, 0.306600004435, 0.284620016813, -0.233100011945, -2.1886446476, -0.724281787872, 61.4491195679, 423.786, True, DATA007.CSV, 3.256, (False, False, False, False)
76.775, 78.9125, 7.8125, 6.054683829, 36.2780685425, 2017-08-03 06:44:32, 23942.257984, 1021.72829316, 47.080111667, -117.441025, True, 271, 102, 10, 0.026839999482, -0.00841799937189, 1.01229500771, 1.68320000172, 8.28699970245, 15.5996894836, 0.525000035763, 0.257180005312, -0.223159998655, -1.51873254776, -0.47644674778, 78.2213058472, 455.45, True, DATA007.CSV, 4.714, (False, False, False, False)
76.775, 78.9125, 5.45, 5.907977892, 36.5931243896, 2017-08-03 06:45:09, 24548.557216, 1002.76119447, 47.076648333, -117.436331667, True, 294, 107, 10, 0.0247050002217, 0.000975999981165, 1.02126193047, -2.01804995537, 10.124499321, 8.21468925476, 0.333059996367, 0.000980000011623, -0.222320005298, -1.38575184345, 0.0547564327717, 104.151405334, 492.567, True, DATA007.CSV, 0.758, (False, False, False, False)
76.775, 78.9125, 3.0875, 5.7997432845, 36.7506599426, 2017-08-03 06:45:41, 25002.953556, 920.388021731, 47.073703333, -117.431978333, True, 313, 113, 10, 0.0334279984236, -0.00475799990818, 1.01461303234, 8.57820034027, 3.92074990273, -42.8415603638, 0.424480021, 0.191239997745, -0.247519999743, -1.88699483871, -0.268685013056, 80.0671157837, 524.306, True, DATA007.CSV, 2.168, (False, False, False, False)
76.8875, 79.025, 1.0625, 5.711886516, 36.125415802, 2017-08-03 06:46:13, 25390.092676, 772.13889482, 47.07109, -117.42756, True, 329, 122, 10, 0.0258029997349, -0.0122609995306, 1.0087569952, -1.09930002689, 3.70199990273, -57.4015617371, 0.490140020847, 0.0562800019979, -0.238840013742, -1.46514129639, -0.696370780468, 97.7697372437, 555.927, True, DATA007.CSV, 3.774, (False, False, False, False)
76.775, 78.9125, 0.3875, 5.6224343295, 36.2780685425, 2017-08-03 06:46:49, 25783.465392, 705.425755191, 47.068076667, -117.4227, True, 351, 127, 10, 0.0257419999689, -0.0086620002985, 1.00503599644, 1.49070000648, -0.489250063896, -49.6228103638, 0.205240011215, 0.0718199983239, -0.217560008168, -1.46714222431, -0.493796974421, 85.0334320068, 592.315, True, DATA007.CSV, 0.545, (False, False, False, False)
76.775, 78.9125, 0.1625, 5.560974477, 35.6479644775, 2017-08-03 06:47:21, 26041.995584, 47004.7919266, 47.065146667, -117.418193333, True, 16, 4, 10, 0.0340989977121, -0.0026839999482, 1.04474699497, 0.904449999332, 2.16199994087, 7.77719020844, 0.254380017519, 0.206920012832, -0.236040011048, -1.86937999725, -0.147194996476, 65.1941070557, 24.827, True, DATA008.CSV, 3.993, (False, False, False, False)
76.8875, 79.025, -1.1875, 5.4949459275, 35.8103179932, 2017-08-03 06:47:55, 26334.318428, 519.281525838, 47.062116667, -117.413773333, True, 31, 14, 10, 0.0337940007448, 0.000304999994114, 1.05334794521, 5.24445009232, 3.29949975014, 16.6059398651, 0.228060007095, 0.246120005846, -0.233100011945, -1.8375595808, 0.0165901593864, 57.1388397217, 58.269, True, DATA008.CSV, 3.689, (False, False, False, False)
76.775, 79.025, -4.45, 5.36495562, 35.4904327393, 2017-08-03 06:48:29, 26852.363064, 755.023337972, 47.058996667, -117.409201667, True, 52, 21, 10, 0.0344650000334, -0.00805199984461, 1.0218719244, 2.1819498539, 9.1532497406, -21.4740600586, 0.631540000439, 0.149379998446, -0.183679997921, -1.93164074421, -0.451461702585, 91.0122375488, 95.017, True, DATA008.CSV, 0.036, (False, False, False, False)
76.775, 79.025, -5.4625, 5.265677109, 35.4904327393, 2017-08-03 06:49:03, 27359.909012, 954.362507439, 47.056035, -117.404236667, True, 73, 27, 10, 0.026839999482, -0.00805199984461, 1.02126193047, -1.32680010796, -2.56300020218, -45.8428115845, 0.444780021906, 0.370719999075, -0.205520004034, -1.5054090023, -0.451731294394, 64.5091094971, 126.726, True, DATA008.CSV, 1.471, (False, False, False, False)
76.6625, 78.9125, -6.925, 5.1960951285, 35.4856452942, 2017-08-03 06:49:35, 27665.355216, 668.700825691, 47.053271667, -117.399636667, True, 90, 33, 10, 0.0369659997523, -0.0100649995729, 1.02858197689, 2.40945005417, -2.26550006866, -10.2653102875, 0.571340024471, 0.243180006742, -0.205380007625, -2.05815696716, -0.560639381409, 81.2638931274, 158.321, True, DATA008.CSV, 3.055, (False, False, False, False)
76.6625, 78.9125, -9.4, 5.078578089, 35.3281402588, 2017-08-03 06:50:04, 28200.132136, 830.903888297, 47.050898333, -117.395383333, True, 109, 40, 9, 0.044224999845, -0.00408700015396, 0.987223982811, -1.79055011272, -3.10550022125, -6.75655984879, 0.539279997349, 0.0282800011337, -0.200760006905, -2.56496095657, -0.237196922302, 101.318138123, 190.324, True, DATA008.CSV, 4.157, (False, False, False, False)
76.6625, 78.9125, -9.85, 5.014543812, 35.3281402588, 2017-08-03 06:50:41, 28523.62296, 689.560063004, 47.047756667, -117.390018333, True, 134, 46, 9, 0.0402599982917, -0.00378199992701, 1.03272998333, 1.8669500351, 0.044499874115, -13.2315607071, 0.443240016699, 0.361200004816, -0.20286001265, -2.23247599602, -0.209824115038, 65.143119812, 224.447, True, DATA008.CSV, 3.29, (False, False, False, False)
76.55, 78.9125, -9.9625, 4.957616397, 34.8509254456, 2017-08-03 06:51:12, 28795.604596, 521.957299709, 47.044725, -117.385753333, True, 152, 51, 9, 0.0380639992654, -0.00292799994349, 1.00235199928, 0.125699982047, -1.06675004959, -2.01405978203, 0.517440021038, 0.0323400013149, -0.217980012298, -2.17473459244, -0.167367890477, 100.743659973, 256.047, True, DATA008.CSV, 4.855, (False, False, False, False)
76.55, 78.9125, -10.1875, 4.898223336, 35.1658973694, 2017-08-03 06:51:49, 29099.738464, 521.128045881, 47.040715, -117.38147, True, 173, 56, 9, 0.044103000313, -0.00219599995762, 1.02925300598, 4.40445041656, -4.38300037384, 22.7659397125, 0.251579999924, 0.0509600006044, -0.231420010328, -2.45359039307, -0.122245289385, 92.8691101074, 293.004, True, DATA008.CSV, 1.072, (False, False, False, False)
76.6625, 78.9125, -11.2, 4.845066909, 35.0131263733, 2017-08-03 06:52:21, 29348.098052, 480.847166705, 47.037085, -117.378611667, True, 193, 63, 9, 0.0353799983859, -0.00823500007391, 0.997959971428, 1.42944991589, 1.98699975014, 12.8084392548, 0.539279997349, 0.100239999592, -0.220780000091, -2.03034877777, -0.472784489393, 93.7901687622, 324.774, True, DATA008.CSV, 2.453, (False, False, False, False)
76.55, 78.9125, -11.425, 4.7965879575, 34.6934432983, 2017-08-03 06:52:53, 29586.287036, 446.54837606, 47.033246667, -117.375765, True, 213, 71, 8, 0.0378200002015, -0.000548999989405, 1.02968001366, 0.300700008869, 0.893249988556, -18.6390609741, 0.425600022078, 0.00335999997333, -0.221620008349, -2.10351967812, -0.0305486936122, 103.867668152, 356.454, True, DATA008.CSV, 3.941, (False, False, False, False)
76.4375, 78.8, -11.65, 4.740421992, 34.5313034058, 2017-08-03 06:53:30, 29869.751612, 486.050782585, 47.028885, -117.37225, True, 234, 78, 9, 0.0403209999204, -0.00250099995174, 1.00235199928, 0.265699982643, -0.498000144958, -4.93655967712, 0.52542001009, 0.0740600004792, -0.222180008888, -2.30355286598, -0.142960205674, 96.2967910767, 393.3, True, DATA008.CSV, 0.255, (False, False, False, False)
76.4375, 78.8, -13.0, 4.6817903805, 34.6887626648, 2017-08-03 06:54:01, 30157.153196, 529.974906254, 47.025283333, -117.369488333, True, 255, 84, 9, 0.0415409989655, -0.0108579993248, 1.05743503571, -7.7405500412, 3.21200013161, 12.4759397507, 0.183400005102, 0.191380009055, -0.221340000629, -2.24957084656, -0.588306188583, 58.1002082825, 424.67, True, DATA008.CSV, 2.118, (False, False, False, False)
76.4375, 78.6875, -14.0125, 4.630483188, 34.3738365173, 2017-08-03 06:54:32, 30429.134832, 553.115119588, 47.021611667, -117.36735, True, 271, 92, 9, 0.0370879992843, -0.0021349999588, 1.01985895634, 1.92820000648, 1.36574983597, 16.2646903992, 0.57218003273, 0.154420003295, -0.206080004573, -2.08268523216, -0.11994433403, 89.2168197632, 455.853, True, DATA008.CSV, 4.103, (False, False, False, False)
76.325, 78.6875, -14.2375, 4.5702561585, 33.8968772888, 2017-08-03 06:55:08, 30707.02198, 482.700398123, 47.01717, -117.364893333, True, 297, 99, 9, 0.0354410000145, 0.00274499994703, 1.02211594582, 3.1794500351, 5.11075019836, 4.39969015121, 0.513379991055, 0.203979998827, -0.234500005841, -1.98587930202, 0.153873473406, 82.6507110596, 492.011, True, DATA008.CSV, 1.116, (False, False, False, False)
76.325, 78.575, -15.7, 4.5170272125, 34.2117614746, 2017-08-03 06:55:39, 30978.019364, 497.925412059, 47.013153333, -117.362736667, True, 313, 105, 9, 0.0368440002203, -0.00481900013983, 1.0252879858, 2.3219499588, 1.36574983597, 30.5621891022, 0.304220020771, 0.0104999998584, -0.224560007453, -2.05803084373, -0.269296348095, 102.343238831, 522.991, True, DATA008.CSV, 3.278, (False, False, False, False)
76.325, 78.575, -15.8125, 4.462311627, 34.0543251038, 2017-08-03 06:56:13, 31275.263468, 528.848286855, 47.008826667, -117.36032, True, 335, 113, 9, 0.0413579978049, -0.00311099993996, 1.03931796551, 2.77694988251, -0.865500092506, 9.60593986511, 0.316680014133, 0.0372400023043, -0.222180008888, -2.27878117561, -0.171503469348, 97.6130981445, 556.665, True, DATA008.CSV, 2.755, (False, False, False, False)
76.2125, 78.4625, -18.0625, 4.4070884085, 33.5774726868, 2017-08-03 06:56:44, 31558.728044, 544.689902568, 47.005041667, -117.358125, True, 351, 119, 9, 0.0403819978237, -0.00506300013512, 1.02205502987, -0.723049998283, -0.375500202179, -1.42780995369, 0.209580004215, 0.146999999881, -0.226940006018, -2.26258540154, -0.283826351166, 69.2740707397, 587.827, True, DATA008.CSV, 4.746, (False, False, False, False)
76.1, 78.2375, -17.1625, 4.346353746, 33.4155426025, 2017-08-03 06:57:21, 31895.342228, 57002.1202667, 47.000513333, -117.35605, True, 18, 4, 9, 0.0409919992089, -0.00225699995644, 0.990884006023, 2.31319999695, 3.23825001717, 9.33469009399, 0.386400014162, -0.0324800014496, -0.214760005474, -2.36891913414, -0.130506038666, 109.1248703, 24.821, True, DATA009.CSV, 3.989, (False, False, False, False)
75.9875, 78.2375, -18.4, 4.290514116, 33.5684242249, 2017-08-03 06:57:55, 32200.460348, 553.041059792, 46.99628, -117.354445, True, 35, 11, 9, 0.0396500006318, -0.00317199993879, 1.01589393616, 2.06819987297, -2.19550013542, 8.6259393692, 0.205099999905, 0.167720004916, -0.223300009966, -2.2350897789, -0.178898215294, 65.045501709, 58.402, True, DATA009.CSV, 3.576, (False, False, False, False)
75.875, 78.2375, -20.7625, 4.2308672385, 33.5638999939, 2017-08-03 06:58:31, 32515.420988, 537.877809286, 46.991498333, -117.352293333, True, 62, 19, 9, 0.0400770008564, -0.000121999997646, 1.00222992897, -0.530550003052, -1.53050017357, 13.114689827, 0.518280029297, 0.292600005865, -0.207760006189, -2.28991389275, -0.00697453180328, 74.8726730347, 94.616, True, DATA009.CSV, 0.53, (False, False, False, False)
75.7625, 78.125, -21.775, 4.182605844, 32.9300308228, 2017-08-03 06:59:02, 32793.63622, 537.191653252, 46.987131667, -117.350325, True, 78, 25, 9, 0.0351359993219, -0.00786899961531, 0.980513989925, 0.650700032711, 0.455749988556, 34.7971916199, 0.56657999754, 0.128240004182, -0.222460001707, -2.05220794678, -0.459810644388, 91.5665283203, 125.857, True, DATA009.CSV, 2.448, (False, False, False, False)
75.7625, 78.0125, -22.5625, 4.131262392, 32.7726974487, 2017-08-03 06:59:33, 33072.179536, 536.928783214, 46.98263, -117.348608333, True, 102, 33, 9, 0.0383079983294, -0.00286699994467, 0.992286980152, 2.5406999588, -0.506750106812, 10.865940094, 0.210420012474, 0.225260004401, -0.223159998655, -2.21084022522, -0.165543362498, 57.3691596985, 156.884, True, DATA009.CSV, 4.578, (False, False, False, False)
75.5375, 77.9, -22.7875, 4.073754825, 32.7638664246, 2017-08-03 07:00:09, 33393.045688, 531.867514205, 46.97784, -117.346561667, True, 124, 40, 9, 0.0398939996958, -0.00311099993996, 1.00454795361, -1.62430000305, -0.59425008297, -7.31655979156, 0.485660016537, -0.00896000023931, -0.22148001194, -2.27420306206, -0.177439600229, 105.376930237, 193.103, True, DATA009.CSV, 1.512, (False, False, False, False)
75.425, 77.9, -24.5875, 4.023281601, 32.9167251587, 2017-08-03 07:00:40, 33672.245172, 537.142186189, 46.974003333, -117.344806667, True, 143, 47, 9, 0.0372099988163, -0.00280599994585, 1.03724396229, 1.78819990158, 1.24324989319, 22.1709403992, 0.383740007877, 0.360359996557, -0.210700005293, -2.05453538895, -0.154998794198, 61.1196708679, 224.296, True, DATA009.CSV, 3.495, (False, False, False, False)
75.425, 77.675, -26.05, 3.967151895, 32.4449081421, 2017-08-03 07:01:14, 33983.924972, 528.048694491, 46.969758333, -117.342848333, True, 164, 53, 9, 0.0322079993784, -0.00481900013983, 1.03840303421, -0.145550012589, -0.699250102043, 14.2346897125, 0.454580008984, -0.00167999998666, -0.213080003858, -1.77654623985, -0.265895187855, 104.531745911, 260.471, True, DATA009.CSV, 0.483, (False, False, False, False)
75.3125, 77.675, -26.3875, 3.9147569175, 32.5977973938, 2017-08-03 07:01:48, 34298.885612, 556.049961948, 46.96567, -117.340883333, True, 185, 61, 9, 0.0349529981613, -0.00103699997999, 1.04377102852, 1.97195005417, 3.91199994087, -0.614059984684, 0.528780043125, 0.0432600006461, -0.225120007992, -1.91795909405, -0.0569240748882, 99.6429901123, 291.586, True, DATA009.CSV, 2.387, (False, False, False, False)
75.2, 77.5625, -28.1875, 3.8627607945, 32.1217079163, 2017-08-03 07:02:19, 34571.8515, 567.085810256, 46.961961667, -117.339161667, True, 202, 67, 10, 0.0367829985917, -0.00487999990582, 0.98112398386, 0.466949999332, -0.244250059128, -22.1478099823, 0.411600023508, 0.318920016289, -0.22148001194, -2.14702510834, -0.284980356693, 66.5503997803, 323.255, True, DATA009.CSV, 3.946, (False, False, False, False)
75.0875, 77.3375, -29.875, 3.808407804, 32.2746009827, 2017-08-03 07:02:56, 34915.683532, 578.534103107, 46.957363333, -117.336885, True, 226, 75, 10, 0.042333997786, 0.000182999996468, 1.0112580061, -0.521799981594, 2.90575003624, 3.71719002724, 0.32298001647, 0.312620013952, -0.23044000566, -2.39715671539, 0.010368399322, 60.2538070679, 360.218, True, DATA009.CSV, 0.172, (False, False, False, False)
74.8625, 77.225, -31.45, 3.761125416, 32.4230766296, 2017-08-03 07:03:28, 35220.145484, 572.36465925, 46.95337, -117.334853333, True, 245, 82, 10, 0.0402599982917, -0.0021349999588, 1.03108298779, -1.52805006504, 1.19074988365, 4.19844007492, 0.544740021229, 0.0900200009346, -0.224560007453, -2.23604846001, -0.118638657033, 94.9364929199, 392.064, True, DATA009.CSV, 1.477, (False, False, False, False)
74.8625, 77.1125, -30.775, 3.7122113505, 32.2659111023, 2017-08-03 07:04:00, 35503.938144, 581.273564649, 46.949258333, -117.332661667, True, 263, 90, 10, 0.0342819988728, 0.00250099995174, 1.01406395435, 2.86444997787, 2.09199976921, 18.3209400177, 0.559440016747, 0.0876400023699, -0.217980012298, -1.93622899055, 0.141309082508, 95.4165878296, 423.666, True, DATA009.CSV, 3.039, (False, False, False, False)
74.6375, 77.1125, -31.5625, 3.6649289625, 32.1001014709, 2017-08-03 07:04:31, 35791.667812, 550.91388222, 46.945141667, -117.329606667, True, 284, 95, 10, 0.0356849990785, -0.00329399993643, 1.0044260025, 2.00694990158, 3.75450015068, 0.750940024853, 0.47978001833, 0.0259000007063, -0.233100011945, -2.0347237587, -0.187899976969, 101.229988098, 455.44, True, DATA009.CSV, 4.428, (False, False, False, False)
74.525, 77.0, -33.3625, 3.610866048, 31.9386844635, 2017-08-03 07:05:08, 36110.56546, 522.823536503, 46.939936667, -117.3261, True, 307, 103, 10, 0.0375759974122, -0.00506300013512, 0.935495972633, -0.346800029278, -2.38800001144, 26.9046897888, 0.41468000412, -0.0217000003904, -0.218960002065, -2.30012488365, -0.31008759141, 107.31552124, 492.305, True, DATA009.CSV, 0.764, (False, False, False, False)
