Interior Temperature 1, Interior Temperature 2, Interior Temperature 3, Exterior Temperature, Pressure, Humidity, GPS Time 1, Latitude 1, Longitude 1, Altitude 1, Number of GPS Satellites 1, GPS Time 2, Latitude 2, Longitude 2, Altitude 2, Acceleration (x), Acceleration (y), Acceleration (z), Rotation Rate (x), Rotation Rate (y), Rotation Rate (z), Magnetic Field (x), Magnetic Field (y), Magnetic Field (z), Pitch, Roll, Yaw, Time Since Reset, Data Logging Status, Data Filename, Data Age, Relay States
82.17500305175781, 81.27499389648438, 85.10355377197266, 77.11250305175781, 11.8621141275, 23.88433837890625, 2019-09-02 09:52:53, 37.62583, -104.7785633, 6177.493636, 7, 2019-09-02 09:52:54, 37.6258017, -104.7785367, 6185.695736000001, 0.033976998180150986, -0.024277999997138977, 1.0084519386291504, 0.38499999046325684, 2.887500047683716, 0.29750001430511475, 0.2640399932861328, 0.32774001359939575, -0.2651599943637848, -1.9291341304779053, -1.379102110862732, 53.1762580871582, 5387.538, True, DATA001.CSV, 1.759, (False, False, False, False)
0, 0, 0, 0, 0.0, 0, 1999-12-31 17:00:00, 0.0, 0.0, 0.0, 0, 1999-12-31 17:00:00, 0.0, 0.0, 0.0, 0, 0, 0, 0, 0, 0, 0, 0, 0, 0, 0, 0, 0.0, 0, DATA000.CSV, 0.0, (False, False, False, False)
0, 0, 0, 0, 0.0, 0, 1999-12-31 17:00:00, 0.0, 0.0, 0.0, 0, 1999-12-31 17:00:00, 0.0, 0.0, 0.0, 0, 0, 0, 0, 0, 0, 0, 0, 0, 0, 0, 0, 0.0, 0, DATA000.CSV, 0.0, (False, False, False, False)
82.2874984741211, 81.38749694824219, 85.08424377441406, 77.11250305175781, 11.862222906, 23.89959716796875, 2019-09-02 09:53:31, 37.6258383, -104.7785567, 6180.7744760000005, 7, 2019-09-02 09:53:34, 37.6258233, -104.7785317, 6187.0080720000005, 0.030561000108718872, -0.022386999800801277, 1.0043039321899414, 0.65625, 2.7825000286102295, 0.32374998927116394, 0.2608200013637543, 0.3295600116252899, -0.26208001375198364, -1.742541790008545, -1.2769720554351807, 52.67875289916992, 5425.53, True, DATA001.CSV, 3.682, (False, False, False, False)
82.17500305175781, 81.38749694824219, 85.10355377197266, 77.11250305175781, 11.862077868, 23.9224853515625, 2019-09-02 09:53:44, 37.62583, -104.7785583, 6180.7744760000005, 7, 2019-09-02 09:53:44, 37.62581, -104.778525, 6187.992324, 0.033976998180150986, -0.02391199953854084, 1.0050359964370728, 0.33250001072883606, 2.9574999809265137, 0.26249998807907104, 0.2595600187778473, 0.3291400074958801, -0.26782000064849854, -1.9356989860534668, -1.3629343509674072, 52.5793342590332, 5438.527, True, DATA001.CSV, 4.018, (False, False, False, False)
82.17500305175781, 81.38749694824219, 85.10355377197266, 77.11250305175781, 11.862222906, 23.93011474609375, 2019-09-02 09:53:57, 37.6258233, -104.7785533, 6181.430644, 7, 2019-09-02 09:53:59, 37.625815, -104.77852, 6192.257416, 0.031658999621868134, -0.022996999323368073, 1.0074759721755981, 0.699999988079071, 2.992500066757202, 0.2800000011920929, 0.26236000657081604, 0.33222001791000366, -0.2641800045967102, -1.7994059324264526, -1.3076262474060059, 52.618770599365234, 5451.525, True, DATA001.CSV, 4.327, (False, False, False, False)
0, 0, 0, 0, 0.0, 0, 1999-12-31 17:00:00, 0.0, 0.0, 0.0, 0, 1999-12-31 17:00:00, 0.0, 0.0, 0.0, 0, 0, 0, 0, 0, 0, 0, 0, 0, 0, 0, 0, 0.0, 0, DATA000.CSV, 0.0, (False, False, False, False)
82.39999389648438, 81.38749694824219, 85.0456314086914, 77.11250305175781, 11.862077868, 23.94537353515625, 2019-09-02 09:54:24, 37.6257933, -104.778595, 6182.74298, 7, 2019-09-02 09:54:24, 37.6258133, -104.7785183, 6194.882088, 0.03300099819898605, -0.021410999819636345, 1.0163819789886475, 0.7524999976158142, 2.502500057220459, 0.2800000011920929, 0.26109999418258667, 0.33235999941825867, -0.2654400169849396, -1.8592760562896729, -1.2068085670471191, 52.47296142578125, 5478.518, True, DATA001.CSV, 3.932, (False, False, False, False)
82.39999389648438, 81.27499389648438, 85.06494140625, 77.2249984741211, 11.8617515325, 23.96063232421875, 2019-09-02 09:54:37, 37.6258117, -104.778595, 6184.383400000001, 7, 2019-09-02 09:54:39, 37.625815, -104.7785183, 6196.194424, 0.03226900100708008, -0.02147199958562851, 1.0071710348129272, 0.6474999785423279, 2.703749895095825, 0.4637500047683716, 0.2603999972343445, 0.33264002203941345, -0.27132001519203186, -1.8346692323684692, -1.2213103771209717, 52.374839782714844, 5491.516, True, DATA001.CSV, 4.263, (False, False, False, False)
0, 0, 0, 0, 0.0, 0, 1999-12-31 17:00:00, 0.0, 0.0, 0.0, 0, 1999-12-31 17:00:00, 0.0, 0.0, 0.0, 0, 0, 0, 0, 0, 0, 0, 0, 0, 0, 0, 0, 0.0, 0, DATA000.CSV, 0.0, (False, False, False, False)
0, 0, 0, 0, 0.0, 0, 1999-12-31 17:00:00, 0.0, 0.0, 0.0, 0, 1999-12-31 17:00:00, 0.0, 0.0, 0.0, 0, 0, 0, 0, 0, 0, 0, 0, 0, 0, 0, 0, 0.0, 0, DATA000.CSV, 0.0, (False, False, False, False)
0, 0, 0, 0, 0.0, 0, 1999-12-31 17:00:00, 0.0, 0.0, 0.0, 0, 1999-12-31 17:00:00, 0.0, 0.0, 0.0, 0, 0, 0, 0, 0, 0, 0, 0, 0, 0, 0, 0, 0.0, 0, DATA000.CSV, 0.0, (False, False, False, False)
82.0625, 81.27499389648438, 85.10355377197266, 77.2249984741211, 11.86193283, 23.94537353515625, 2019-09-02 09:55:45, 37.6257917, -104.7786033, 6187.992324, 7, 2019-09-02 09:55:44, 37.625815, -104.778505, 6194.5540040000005, 0.03171999752521515, -0.023057999089360237, 1.0061949491500854, 0.699999988079071, 2.870000123977661, 0.19249999523162842, 0.2591400146484375, 0.3299800157546997, -0.26697999238967896, -1.805160641670227, -1.3127622604370117, 52.4632682800293, 5559.501, True, DATA001.CSV, 2.825, (False, False, False, False)
0, 0, 0, 0, 0.0, 0, 1999-12-31 17:00:00, 0.0, 0.0, 0.0, 0, 1999-12-31 17:00:00, 0.0, 0.0, 0.0, 0, 0, 0, 0, 0, 0, 0, 0, 0, 0, 0, 0, 0.0, 0, DATA000.CSV, 0.0, (False, False, False, False)
0, 0, 0, 0, 0.0, 0, 1999-12-31 17:00:00, 0.0, 0.0, 0.0, 0, 1999-12-31 17:00:00, 0.0, 0.0, 0.0, 0, 0, 0, 0, 0, 0, 0, 0, 0, 0, 0, 0, 0.0, 0, DATA000.CSV, 0.0, (False, False, False, False)
0, 0, 0, 0, 0.0, 0, 1999-12-31 17:00:00, 0.0, 0.0, 0.0, 0, 1999-12-31 17:00:00, 0.0, 0.0, 0.0, 0, 0, 0, 0, 0, 0, 0, 0, 0, 0, 0, 0, 0.0, 0, DATA000.CSV, 0.0, (False, False, False, False)
0, 0, 0, 0, 0.0, 0, 1999-12-31 17:00:00, 0.0, 0.0, 0.0, 0, 1999-12-31 17:00:00, 0.0, 0.0, 0.0, 0, 0, 0, 0, 0, 0, 0, 0, 0, 0, 0, 0, 0.0, 0, DATA000.CSV, 0.0, (False, False, False, False)
82.17500305175781, 81.38749694824219, 85.2000732421875, 77.2249984741211, 11.861352678, 23.91485595703125, 2019-09-02 09:57:06, 37.62581, -104.7785683, 6177.82172, 7, 2019-09-02 09:57:04, 37.6258183, -104.7785167, 6193.569752, 0.031658999621868134, -0.024948999285697937, 1.0003390312194824, 0.5774999856948853, 2.799999952316284, 0.26249998807907104, 0.26236000657081604, 0.33180001378059387, -0.25620001554489136, -1.8121438026428223, -1.4286916255950928, 52.654029846191406, 5640.484, True, DATA001.CSV, 1.787, (False, False, False, False)
0, 0, 0, 0, 0.0, 0, 1999-12-31 17:00:00, 0.0, 0.0, 0.0, 0, 1999-12-31 17:00:00, 0.0, 0.0, 0.0, 0, 0, 0, 0, 0, 0, 0, 0, 0, 0, 0, 0, 0.0, 0, DATA000.CSV, 0.0, (False, False, False, False)
0, 0, 0, 0, 0.0, 0, 1999-12-31 17:00:00, 0.0, 0.0, 0.0, 0, 1999-12-31 17:00:00, 0.0, 0.0, 0.0, 0, 0, 0, 0, 0, 0, 0, 0, 0, 0, 0, 0, 0.0, 0, DATA000.CSV, 0.0, (False, False, False, False)
82.17500305175781, 81.38749694824219, 85.23868560791016, 77.11250305175781, 11.861570235, 23.93011474609375, 2019-09-02 09:57:42, 37.6257817, -104.77856, 6174.868964, 7, 2019-09-02 09:57:44, 37.6258283, -104.7785383, 6192.257416, 0.031293001025915146, -0.022874999791383743, 1.0008269548416138, 0.7262499928474426, 3.018749952316284, 0.45500001311302185, 0.26278001070022583, 0.3313800096511841, -0.2602600157260895, -1.7904243469238281, -1.3093299865722656, 52.73395538330078, 5676.477, True, DATA001.CSV, 5.751, (False, False, False, False)
0, 0, 0, 0, 0.0, 0, 1999-12-31 17:00:00, 0.0, 0.0, 0.0, 0, 1999-12-31 17:00:00, 0.0, 0.0, 0.0, 0, 0, 0, 0, 0, 0, 0, 0, 0, 0, 0, 0, 0.0, 0, DATA000.CSV, 0.0, (False, False, False, False)
82.0625, 81.38749694824219, 85.25799560546875, 77.11250305175781, 11.861570235, 23.88433837890625, 2019-09-02 09:58:25, 37.6258033, -104.7785633, 6166.9949480000005, 7, 2019-09-02 09:58:24, 37.625845, -104.77857, 6189.304660000001, 0.03171999752521515, -0.02214299887418747, 1.0072929859161377, 0.6912500262260437, 2.747499942779541, 0.3499999940395355, 0.25620001554489136, 0.3257800042629242, -0.2648800015449524, -1.803231954574585, -1.2593117952346802, 52.50223159790039, 5719.468, True, DATA001.CSV, 1.52, (False, False, False, False)
0, 0, 0, 0, 0.0, 0, 1999-12-31 17:00:00, 0.0, 0.0, 0.0, 0, 1999-12-31 17:00:00, 0.0, 0.0, 0.0, 0, 0, 0, 0, 0, 0, 0, 0, 0, 0, 0, 0, 0.0, 0, DATA000.CSV, 0.0, (False, False, False, False)
81.94999694824219, 81.38749694824219, 85.21937561035156, 77.11250305175781, 11.862440463, 23.89959716796875, 2019-09-02 09:58:53, 37.6258117, -104.778555, 6165.026444, 6, 2019-09-02 09:58:54, 37.625865, -104.7785667, 6188.976576, 0.030988000333309174, -0.02281400002539158, 1.0044870376586914, 0.5687500238418579, 2.7387499809265137, 0.35875001549720764, 0.25578001141548157, 0.3243800103664398, -0.27818000316619873, -1.7665348052978516, -1.3010830879211426, 52.57646942138672, 5747.462, True, DATA001.CSV, 1.335, (False, False, False, False)
0, 0, 0, 0, 0.0, 0, 1999-12-31 17:00:00, 0.0, 0.0, 0.0, 0, 1999-12-31 17:00:00, 0.0, 0.0, 0.0, 0, 0, 0, 0, 0, 0, 0, 0, 0, 0, 0, 0, 0.0, 0, DATA000.CSV, 0.0, (False, False, False, False)
82.0625, 81.38749694824219, 85.2000732421875, 77.2249984741211, 11.8621141275, 23.89959716796875, 2019-09-02 09:59:21, 37.6258033, -104.77856, 6164.69836, 6, 2019-09-02 09:59:19, 37.625855, -104.77857, 6187.66424, 0.030438998714089394, -0.022996999323368073, 1.0033890008926392, 0.5687500238418579, 2.966249942779541, 0.2537499964237213, 0.2601200044155121, 0.325080007314682, -0.2647400200366974, -1.7371468544006348, -1.312950611114502, 52.98582458496094, 5775.456, True, DATA001.CSV, 1.163, (False, False, False, False)
0, 0, 0, 0, 0.0, 0, 1999-12-31 17:00:00, 0.0, 0.0, 0.0, 0, 1999-12-31 17:00:00, 0.0, 0.0, 0.0, 0, 0, 0, 0, 0, 0, 0, 0, 0, 0, 0, 0, 0.0, 0, DATA000.CSV, 0.0, (False, False, False, False)
0, 0, 0, 0, 0.0, 0, 1999-12-31 17:00:00, 0.0, 0.0, 0.0, 0, 1999-12-31 17:00:00, 0.0, 0.0, 0.0, 0, 0, 0, 0, 0, 0, 0, 0, 0, 0, 0, 0, 0.0, 0, DATA000.CSV, 0.0, (False, False, False, False)
0, 0, 0, 0, 0.0, 0, 1999-12-31 17:00:00, 0.0, 0.0, 0.0, 0, 1999-12-31 17:00:00, 0.0, 0.0, 0.0, 0, 0, 0, 0, 0, 0, 0, 0, 0, 0, 0, 0, 0.0, 0, DATA000.CSV, 0.0, (False, False, False, False)
0, 0, 0, 0, 0.0, 0, 1999-12-31 17:00:00, 0.0, 0.0, 0.0, 0, 1999-12-31 17:00:00, 0.0, 0.0, 0.0, 0, 0, 0, 0, 0, 0, 0, 0, 0, 0, 0, 0, 0.0, 0, DATA000.CSV, 0.0, (False, False, False, False)
0, 0, 0, 0, 0.0, 0, 1999-12-31 17:00:00, 0.0, 0.0, 0.0, 0, 1999-12-31 17:00:00, 0.0, 0.0, 0.0, 0, 0, 0, 0, 0, 0, 0, 0, 0, 0, 0, 0, 0.0, 0, DATA000.CSV, 0.0, (False, False, False, False)
0, 0, 0, 0, 0.0, 0, 1999-12-31 17:00:00, 0.0, 0.0, 0.0, 0, 1999-12-31 17:00:00, 0.0, 0.0, 0.0, 0, 0, 0, 0, 0, 0, 0, 0, 0, 0, 0, 0, 0.0, 0, DATA000.CSV, 0.0, (False, False, False, False)
0, 0, 0, 0, 0.0, 0, 1999-12-31 17:00:00, 0.0, 0.0, 0.0, 0, 1999-12-31 17:00:00, 0.0, 0.0, 0.0, 0, 0, 0, 0, 0, 0, 0, 0, 0, 0, 0, 0, 0.0, 0, DATA000.CSV, 0.0, (False, False, False, False)
0, 0, 0, 0, 0.0, 0, 1999-12-31 17:00:00, 0.0, 0.0, 0.0, 0, 1999-12-31 17:00:00, 0.0, 0.0, 0.0, 0, 0, 0, 0, 0, 0, 0, 0, 0, 0, 0, 0, 0.0, 0, DATA000.CSV, 0.0, (False, False, False, False)
0, 0, 0, 0, 0.0, 0, 1999-12-31 17:00:00, 0.0, 0.0, 0.0, 0, 1999-12-31 17:00:00, 0.0, 0.0, 0.0, 0, 0, 0, 0, 0, 0, 0, 0, 0, 0, 0, 0, 0.0, 0, DATA000.CSV, 0.0, (False, False, False, False)
0, 0, 0, 0, 0.0, 0, 1999-12-31 17:00:00, 0.0, 0.0, 0.0, 0, 1999-12-31 17:00:00, 0.0, 0.0, 0.0, 0, 0, 0, 0, 0, 0, 0, 0, 0, 0, 0, 0, 0.0, 0, DATA000.CSV, 0.0, (False, False, False, False)
0, 0, 0, 0, 0.0, 0, 1999-12-31 17:00:00, 0.0, 0.0, 0.0, 0, 1999-12-31 17:00:00, 0.0, 0.0, 0.0, 0, 0, 0, 0, 0, 0, 0, 0, 0, 0, 0, 0, 0.0, 0, DATA000.CSV, 0.0, (False, False, False, False)
0, 0, 0, 0, 0.0, 0, 1999-12-31 17:00:00, 0.0, 0.0, 0.0, 0, 1999-12-31 17:00:00, 0.0, 0.0, 0.0, 0, 0, 0, 0, 0, 0, 0, 0, 0, 0, 0, 0, 0.0, 0, DATA000.CSV, 0.0, (False, False, False, False)
