Interior Temperature 1, Interior Temperature 2, Interior Temperature 3, Exterior Temperature, Pressure, Humidity, GPS Time 1, Latitude 1, Longitude 1, Altitude 1, Number of GPS Satellites 1, GPS Time 2, Latitude 2, Longitude 2, Altitude 2, Acceleration (x), Acceleration (y), Acceleration (z), Rotation Rate (x), Rotation Rate (y), Rotation Rate (z), Magnetic Field (x), Magnetic Field (y), Magnetic Field (z), Pitch, Roll, Yaw, Time Since Reset, Data Logging Status, Data Filename, Data Age, Relay States
83.75, 82.8499984741211, 86.74449157714844, 78.46249389648438, 11.8321637805, 24.37261962890625, 2019-09-02 12:58:00, 37.6258567, -104.7784983, 6203.084188000001, 9, 2019-09-02 12:58:08, 37.62586, -104.77851, 6183.727232, 0.03269600123167038, -0.022996999323368073, 1.0107089281082153, 0.9100000262260437, 2.721250057220459, 0.17499999701976776, 0.2759400010108948, 0.337119996547699, -0.265720009803772, -1.852368712425232, -1.3034452199935913, 53.621063232421875, 222.272, True, DATA010.CSV, 7.128, (False, False, False, False)
83.86250305175781, 82.8499984741211, 86.82170867919922, 78.46249389648438, 11.8318737045, 24.37261962890625, 2019-09-02 12:58:36, 37.6258617, -104.7784933, 6203.084188000001, 7, 2019-09-02 12:58:42, 37.62586, -104.77851, 6183.727232, 0.033549997955560684, -0.022326000034809113, 1.001924991607666, 0.6737499833106995, 3.115000009536743, 0.33250001072883606, 0.2748199999332428, 0.33698001503944397, -0.26697999238967896, -1.9173877239227295, -1.2765165567398071, 53.51854705810547, 13.678, True, DATA011.CSV, 4.778, (False, False, False, False)
83.86250305175781, 82.73750305175781, 86.74449157714844, 78.46249389648438, 11.8312935525, 24.3802490234375, 2019-09-02 12:59:14, 37.62587, -104.778485, 6204.396524000001, 9, 2019-09-02 12:59:20, 37.62586, -104.7785083, 6183.727232, 0.03647799789905548, -0.022081999108195305, 1.0109529495239258, 0.5862500071525574, 2.8087499141693115, 0.3675000071525574, 0.2697800099849701, 0.3299800157546997, -0.26278001070022583, -2.066002607345581, -1.2512987852096558, 53.58821487426758, 13.419, True, DATA012.CSV, 5.02, (False, False, False, False)
83.63749694824219, 82.625, 86.74449157714844, 78.46249389648438, 11.8302782865, 24.34210205078125, 2019-09-02 12:59:38, 37.625865, -104.7784867, 6206.365028, 6, 2019-09-02 12:59:43, 37.62586, -104.77851, 6183.727232, 0.03245199844241142, -0.022386999800801277, 1.0046700239181519, 0.875, 3.009999990463257, 0.3762499988079071, 0.2734200060367584, 0.3319399952888489, -0.26180002093315125, -1.8496174812316895, -1.276507019996643, 53.79838943481445, 37.414, True, DATA012.CSV, 4.358, (False, False, False, False)
83.63749694824219, 82.73750305175781, 86.72517395019531, 78.46249389648438, 11.8310034765, 24.3497314453125, 2019-09-02 13:00:03, 37.6258617, -104.7784833, 6205.380776, 8, 2019-09-02 13:00:08, 37.62586, -104.77851, 6183.727232, 0.03507499769330025, -0.021715998649597168, 1.0093059539794922, 0.6387500166893005, 2.7562499046325684, 0.3499999940395355, 0.2749600112438202, 0.33235999941825867, -0.2535400092601776, -1.9898589849472046, -1.2325727939605713, 53.920806884765625, 13.615, True, DATA013.CSV, 4.806, (False, False, False, False)
83.63749694824219, 82.73750305175781, 86.82170867919922, 78.46249389648438, 11.8302782865, 24.3192138671875, 2019-09-02 13:00:27, 37.6258567, -104.7784917, 6203.084188000001, 9, 2019-09-02 13:00:31, 37.62586, -104.77851, 6183.399148, 0.034648001194000244, -0.020190998911857605, 1.00369393825531, 0.699999988079071, 2.8524999618530273, 0.3412500023841858, 0.2706200182437897, 0.3311000168323517, -0.26124000549316406, -1.9766933917999268, -1.1524457931518555, 53.58036804199219, 37.609, True, DATA013.CSV, 4.131, (False, False, False, False)
83.63749694824219, 82.8499984741211, 86.89892578125, 78.46249389648438, 11.831039736000001, 24.2886962890625, 2019-09-02 13:00:51, 37.6258567, -104.7784933, 6203.084188000001, 8, 2019-09-02 13:00:55, 37.6258617, -104.77851, 6182.414896, 0.03434300050139427, -0.022447999566793442, 1.0054019689559937, 0.6212499737739563, 2.799999952316284, 0.2887499928474426, 0.2697800099849701, 0.3357200026512146, -0.2707599997520447, -1.9558888673782349, -1.279052495956421, 53.104881286621094, 61.604, True, DATA013.CSV, 3.464, (False, False, False, False)
83.86250305175781, 82.96249389648438, 86.84101867675781, 78.46249389648438, 11.831257293, 24.26580810546875, 2019-09-02 13:01:13, 37.625855, -104.7784933, 6202.42802, 8, 2019-09-02 13:01:18, 37.6258633, -104.7785133, 6181.430644, 0.03373299911618233, -0.023180000483989716, 1.0072929859161377, 0.5162500143051147, 2.799999952316284, 0.2887499928474426, 0.2756600081920624, 0.33362001180648804, -0.2602600157260895, -1.9175409078598022, -1.318267583847046, 53.8858757019043, 84.599, True, DATA013.CSV, 3.843, (False, False, False, False)
83.86250305175781, 82.96249389648438, 86.80239868164062, 78.57499694824219, 11.830314546, 24.2734375, 2019-09-02 13:01:38, 37.6258417, -104.7784933, 6198.491012, 8, 2019-09-02 13:01:41, 37.6258633, -104.778515, 6180.7744760000005, 0.03348900005221367, -0.021410999819636345, 1.0040600299835205, 0.44624999165534973, 3.0537500381469727, 0.3412500023841858, 0.27090001106262207, 0.33250001072883606, -0.26697999238967896, -1.9098774194717407, -1.221614122390747, 53.490966796875, 108.594, True, DATA013.CSV, 3.16, (False, False, False, False)
83.9749984741211, 82.96249389648438, 86.80239868164062, 78.46249389648438, 11.829879432, 24.29632568359375, 2019-09-02 13:02:01, 37.62584, -104.7784883, 6197.50676, 7, 2019-09-02 13:02:05, 37.625865, -104.778515, 6180.118308, 0.03580699861049652, -0.022081999108195305, 0.9996680021286011, 0.5249999761581421, 2.913749933242798, 0.33250001072883606, 0.274260014295578, 0.33334001898765564, -0.2653000056743622, -2.050894260406494, -1.2654197216033936, 53.766300201416016, 131.589, True, DATA013.CSV, 3.485, (False, False, False, False)
83.86250305175781, 82.8499984741211, 86.7637939453125, 78.57499694824219, 11.830314546, 24.34210205078125, 2019-09-02 13:02:23, 37.6258417, -104.7784883, 6197.50676, 8, 2019-09-02 13:02:28, 37.625865, -104.778515, 6179.790224, 0.03214699774980545, -0.022447999566793442, 1.0016199350357056, 0.6912500262260437, 2.651250123977661, 0.38499999046325684, 0.27300000190734863, 0.3409000039100647, -0.26291999220848083, -1.8378162384033203, -1.2838804721832275, 53.00849151611328, 154.584, True, DATA013.CSV, 3.817, (False, False, False, False)
83.9749984741211, 82.8499984741211, 86.86032104492188, 78.57499694824219, 11.830314546, 24.4107666015625, 2019-09-02 13:02:48, 37.6258467, -104.7784783, 6195.8663400000005, 9, 2019-09-02 13:02:51, 37.625865, -104.7785133, 6179.790224, 0.02958500012755394, -0.023850999772548676, 1.0066829919815063, 0.6912500262260437, 2.8262500762939453, 0.21000000834465027, 0.2759400010108948, 0.32732000946998596, -0.25620001554489136, -1.682886004447937, -1.3572355508804321, 54.45182800292969, 178.579, True, DATA013.CSV, 3.126, (False, False, False, False)
83.86250305175781, 82.8499984741211, 86.87962341308594, 78.6875, 11.8299156915, 24.3192138671875, 2019-09-02 13:03:11, 37.6258483, -104.77847, 6194.882088, 9, 2019-09-02 13:03:15, 37.625865, -104.7785133, 6179.4621400000005, 0.03440399840474129, -0.022081999108195305, 1.006377935409546, 0.5425000190734863, 2.9574999809265137, 0.21875, 0.2695000171661377, 0.33334001898765564, -0.2690800130367279, -1.9574779272079468, -1.2569853067398071, 53.27497863769531, 201.573, True, DATA013.CSV, 3.387, (False, False, False, False)
83.86250305175781, 82.73750305175781, 86.82170867919922, 78.6875, 11.829951951, 24.31158447265625, 2019-09-02 13:03:33, 37.62585, -104.7784683, 6196.850592000001, 9, 2019-09-02 13:03:38, 37.6258617, -104.778505, 6179.134056, 0.03495299816131592, -0.0231189988553524, 1.0090619325637817, 0.5337499976158142, 3.106250047683716, 0.2537499964237213, 0.275519996881485, 0.33852002024650574, -0.2689400017261505, -1.9833608865737915, -1.312495470046997, 53.46199035644531, 224.569, True, DATA013.CSV, 3.794, (False, False, False, False)
83.9749984741211, 82.96249389648438, 86.89892578125, 78.6875, 11.830532103, 24.2581787109375, 2019-09-02 13:03:58, 37.6258517, -104.7784683, 6197.178676, 9, 2019-09-02 13:04:01, 37.6258617, -104.778505, 6179.134056, 0.0348920002579689, -0.023972999304533005, 1.006134033203125, 0.5687500238418579, 3.141249895095825, 0.1574999988079071, 0.2756600081920624, 0.3362800180912018, -0.2580200135707855, -1.9856168031692505, -1.3649193048477173, 53.662620544433594, 248.564, True, DATA013.CSV, 3.081, (False, False, False, False)
83.86250305175781, 82.96249389648438, 86.82170867919922, 78.6875, 11.8303508055, 24.23529052734375, 2019-09-02 13:04:21, 37.6258383, -104.77846, 6200.459516, 9, 2019-09-02 13:04:25, 37.6258583, -104.7784983, 6179.134056, 0.036295000463724136, -0.023057999089360237, 1.0094889402389526, 0.6037499904632568, 2.817500114440918, 0.21875, 0.2689400017261505, 0.3343200087547302, -0.2699200212955475, -2.058579683303833, -1.308480143547058, 53.13454818725586, 271.559, True, DATA013.CSV, 3.405, (False, False, False, False)
84.08749389648438, 83.07499694824219, 86.87962341308594, 78.6875, 11.830568362500001, 24.25054931640625, 2019-09-02 13:04:43, 37.6258367, -104.7784617, 6202.0999360000005, 7, 2019-09-02 13:04:48, 37.6258533, -104.7784933, 6178.149804000001, 0.03245199844241142, -0.020374000072479248, 1.0021690130233765, 0.699999988079071, 2.8350000381469727, 0.07000000029802322, 0.27118000388145447, 0.33305999636650085, -0.2655799984931946, -1.8543072938919067, -1.1646572351455688, 53.47274398803711, 294.554, True, DATA013.CSV, 3.735, (False, False, False, False)
84.08749389648438, 83.07499694824219, 86.80239868164062, 78.80000305175781, 11.829698134500001, 24.2581787109375, 2019-09-02 13:05:08, 37.6258433, -104.77846, 6201.443768, 8, 2019-09-02 13:05:11, 37.625845, -104.7784867, 6178.149804000001, 0.0331839993596077, -0.02391199953854084, 1.009671926498413, 0.7175000309944153, 2.940000057220459, 0.4025000035762787, 0.26739999651908875, 0.3305400013923645, -0.26138001680374146, -1.881885051727295, -1.35667884349823, 53.29213333129883, 318.548, True, DATA013.CSV, 3.046, (False, False, False, False)
84.08749389648438, 82.96249389648438, 86.80239868164062, 78.80000305175781, 11.8298431725, 24.26580810546875, 2019-09-02 13:05:31, 37.62585, -104.77847, 6201.115684, 9, 2019-09-02 13:05:35, 37.6258433, -104.7784867, 6177.82172, 0.03379400074481964, -0.021532999351620674, 1.002413034439087, 0.3675000071525574, 2.9312500953674316, 0.4025000035762787, 0.27300000190734863, 0.33235999941825867, -0.2704800069332123, -1.9304159879684448, -1.2305907011032104, 53.71963119506836, 341.543, True, DATA013.CSV, 3.367, (False, False, False, False)
84.19999694824219, 82.96249389648438, 86.82170867919922, 78.80000305175781, 11.830387065, 24.29632568359375, 2019-09-02 13:05:53, 37.625855, -104.7784833, 6198.491012, 9, 2019-09-02 13:05:58, 37.6258433, -104.7784867, 6177.82172, 0.036538999527692795, -0.021410999819636345, 1.00375497341156, 0.48124998807907104, 2.8262500762939453, 0.21000000834465027, 0.26166000962257385, 0.3355800211429596, -0.26068001985549927, -2.0843045711517334, -1.2219852209091187, 52.2644157409668, 364.538, True, DATA013.CSV, 3.776, (False, False, False, False)
84.19999694824219, 82.96249389648438, 86.74449157714844, 78.80000305175781, 11.829371799, 24.33447265625, 2019-09-02 13:06:18, 37.6258567, -104.7784817, 6198.162928000001, 9, 2019-09-02 13:06:21, 37.6258417, -104.7784867, 6177.82172, 0.0348920002579689, -0.02025200054049492, 1.0025960206985474, 0.7262499928474426, 2.84375, 0.3675000071525574, 0.2739800214767456, 0.33376002311706543, -0.2644599974155426, -1.9927769899368286, -1.1571922302246094, 53.70220184326172, 388.534, True, DATA013.CSV, 3.048, (False, False, False, False)
84.3125, 82.96249389648438, 86.68657684326172, 78.80000305175781, 11.829226761000001, 24.41839599609375, 2019-09-02 13:06:41, 37.6258567, -104.7784833, 6199.475264000001, 9, 2019-09-02 13:06:45, 37.6258367, -104.7784833, 6177.82172, 0.04483499750494957, -0.020068999379873276, 1.0044260025024414, 0.5687500238418579, 2.9312500953674316, 0.49000000953674316, 0.2745400071144104, 0.32829999923706055, -0.2595600187778473, -2.555330276489258, -1.144649624824524, 54.223960876464844, 411.529, True, DATA013.CSV, 3.348, (False, False, False, False)
84.3125, 82.8499984741211, 86.59004211425781, 78.9124984741211, 11.8288279065, 24.46417236328125, 2019-09-02 13:07:03, 37.62586, -104.7784817, 6200.787600000001, 9, 2019-09-02 13:07:08, 37.625835, -104.7784833, 6177.82172, 0.03239100053906441, -0.021654998883605003, 1.006011962890625, 0.5425000190734863, 3.0799999237060547, 0.29750001430511475, 0.27188000082969666, 0.32899999618530273, -0.2644599974155426, -1.8437128067016602, -1.2331347465515137, 53.88974380493164, 434.524, True, DATA013.CSV, 3.707, (False, False, False, False)
84.19999694824219, 82.8499984741211, 86.70588684082031, 78.9124984741211, 11.8289004255, 24.487060546875, 2019-09-02 13:07:28, 37.6258583, -104.7784817, 6200.787600000001, 9, 2019-09-02 13:07:31, 37.6258367, -104.7784833, 6178.149804000001, 0.035197000950574875, -0.02433899976313114, 1.0043649673461914, 0.6212499737739563, 3.2200000286102295, 0.3149999976158142, 0.2702000141143799, 0.3368400037288666, -0.2655799984931946, -2.006465196609497, -1.3881895542144775, 53.05523681640625, 458.518, True, DATA013.CSV, 3.017, (False, False, False, False)
84.19999694824219, 82.8499984741211, 86.72517395019531, 78.9124984741211, 11.828646609, 24.45654296875, 2019-09-02 13:07:51, 37.6258567, -104.7784833, 6201.443768, 9, 2019-09-02 13:07:55, 37.6258367, -104.7784833, 6178.149804000001, 0.03617300093173981, -0.021654998883605003, 1.0039379596710205, 0.5425000190734863, 3.009999990463257, 0.3062500059604645, 0.2696399986743927, 0.3304000198841095, -0.25718000531196594, -2.063058614730835, -1.2356815338134766, 53.537940979003906, 481.513, True, DATA013.CSV, 3.36, (False, False, False, False)
84.3125, 82.96249389648438, 86.86032104492188, 78.9124984741211, 11.82857409, 24.4107666015625, 2019-09-02 13:08:13, 37.6258533, -104.7784867, 6201.771852, 9, 2019-09-02 13:08:18, 37.6258367, -104.7784833, 6177.82172, 0.034098997712135315, -0.020434999838471413, 1.0046700239181519, 0.4724999964237213, 3.036250114440918, 0.08749999850988388, 0.2710399925708771, 0.3364199995994568, -0.2648800015449524, -1.9434990882873535, -1.165236234664917, 53.17698669433594, 504.509, True, DATA013.CSV, 3.645, (False, False, False, False)
84.3125, 82.96249389648438, 86.84101867675781, 78.9124984741211, 11.828646609, 24.35736083984375, 2019-09-02 13:08:38, 37.6258367, -104.7784933, 6201.115684, 9, 2019-09-02 13:08:41, 37.6258367, -104.7784833, 6177.82172, 0.03306199982762337, -0.02391199953854084, 1.0047919750213623, 0.6650000214576721, 2.703749895095825, 0.16625000536441803, 0.27118000388145447, 0.3291400074958801, -0.26586002111434937, -1.8840657472610474, -1.3632653951644897, 53.805267333984375, 528.502, True, DATA013.CSV, 2.931, (False, False, False, False)
84.3125, 82.96249389648438, 86.87962341308594, 78.9124984741211, 11.8291905015, 24.35736083984375, 2019-09-02 13:09:01, 37.625835, -104.7785017, 6199.14718, 9, 2019-09-02 13:09:05, 37.6258367, -104.778485, 6177.165552, 0.03434300050139427, -0.023729000240564346, 1.006500005722046, 0.6474999785423279, 2.966249942779541, 0.44624999165534973, 0.2703399956226349, 0.3301199972629547, -0.2704800069332123, -1.9537007808685303, -1.3505412340164185, 53.63453674316406, 551.498, True, DATA013.CSV, 3.3, (False, False, False, False)
84.3125, 82.96249389648438, 86.86032104492188, 78.80000305175781, 11.8286103495, 24.35736083984375, 2019-09-02 13:09:23, 37.625835, -104.7785083, 6198.819096, 8, 2019-09-02 13:09:28, 37.6258367, -104.778485, 6177.165552, 0.030194999650120735, -0.023057999089360237, 1.0036330223083496, 0.7437499761581421, 2.84375, 0.1837500035762787, 0.27118000388145447, 0.3355800211429596, -0.2585799992084503, -1.7228091955184937, -1.3161120414733887, 53.26144790649414, 574.493, True, DATA013.CSV, 3.592, (False, False, False, False)
84.3125, 83.07499694824219, 86.93754577636719, 78.80000305175781, 11.8285378305, 24.31158447265625, 2019-09-02 13:10:03, 37.625835, -104.778515, 6199.14718, 9, 2019-09-02 13:10:08, 37.6258367, -104.778485, 6177.165552, 0.03373299911618233, -0.01811699941754341, 1.0094280242919922, 0.7437499761581421, 2.9749999046325684, 0.35875001549720764, 0.27257999777793884, 0.33796000480651855, -0.2599799931049347, -1.9136863946914673, -1.0282220840454102, 53.207740783691406, 14.274, True, DATA014.CSV, 4.121, (False, False, False, False)
84.42500305175781, 82.96249389648438, 86.99545288085938, 78.80000305175781, 11.827848900000001, 24.2581787109375, 2019-09-02 13:10:52, 37.6258317, -104.7785067, 6200.787600000001, 9, 2019-09-02 13:10:56, 37.62584, -104.7784883, 6176.509384, 0.03202499821782112, -0.020374000072479248, 1.0076589584350586, 0.7262499928474426, 2.940000057220459, 0.26249998807907104, 0.27174001932144165, 0.33390000462532043, -0.26600000262260437, -1.8199659585952759, -1.1583136320114136, 53.45995330810547, 62.264, True, DATA014.CSV, 3.785, (False, False, False, False)
84.42500305175781, 82.96249389648438, 87.09197998046875, 78.80000305175781, 11.8278126405, 24.2276611328125, 2019-09-02 13:11:16, 37.6258317, -104.7785117, 6203.084188000001, 8, 2019-09-02 13:11:19, 37.6258467, -104.77849, 6177.493636, 0.0306829996407032, -0.02202099934220314, 1.0039379596710205, 0.65625, 2.8612499237060547, 0.3762499988079071, 0.2738400101661682, 0.33866000175476074, -0.2595600187778473, -1.7501448392868042, -1.2565596103668213, 53.278953552246094, 86.259, True, DATA014.CSV, 3.145, (False, False, False, False)
84.5374984741211, 82.96249389648438, 87.16920471191406, 78.6875, 11.8282477545, 24.20477294921875, 2019-09-02 13:11:38, 37.6258333, -104.7785183, 6206.036944, 8, 2019-09-02 13:11:43, 37.6258483, -104.7784917, 6177.82172, 0.03245199844241142, -0.021410999819636345, 1.0082080364227295, 0.7962499856948853, 2.799999952316284, 0.29750001430511475, 0.26782000064849854, 0.33264002203941345, -0.25732001662254333, -1.8431731462478638, -1.2165896892547607, 53.15874481201172, 109.254, True, DATA014.CSV, 3.443, (False, False, False, False)
84.5374984741211, 82.96249389648438, 87.14989471435547, 78.80000305175781, 11.8288279065, 24.18951416015625, 2019-09-02 13:12:03, 37.6258367, -104.7785133, 6204.724608, 9, 2019-09-02 13:12:06, 37.6258483, -104.7784917, 6178.149804000001, 0.03379400074481964, -0.022081999108195305, 1.006134033203125, 0.5162500143051147, 3.018749952316284, 0.2537499964237213, 0.2695000171661377, 0.326200008392334, -0.2693600058555603, -1.9232629537582397, -1.257290005683899, 53.882843017578125, 133.249, True, DATA014.CSV, 2.826, (False, False, False, False)
84.5374984741211, 82.96249389648438, 86.99545288085938, 78.6875, 11.828066457, 24.2276611328125, 2019-09-02 13:12:26, 37.62584, -104.7785117, 6204.396524000001, 8, 2019-09-02 13:12:29, 37.6258483, -104.7784917, 6178.149804000001, 0.0331839993596077, -0.021105999127030373, 1.004181981086731, 0.5687500238418579, 2.887500047683716, 0.45500001311302185, 0.273140013217926, 0.335860013961792, -0.2641800045967102, -1.8922784328460693, -1.2040711641311646, 53.43992233276367, 156.243, True, DATA014.CSV, 3.147, (False, False, False, False)
84.5374984741211, 82.96249389648438, 87.13058471679688, 78.6875, 11.828356533000001, 24.25054931640625, 2019-09-02 13:12:48, 37.6258517, -104.778505, 6204.724608, 9, 2019-09-02 13:12:53, 37.6258483, -104.7784917, 6178.477888, 0.03422100096940994, -0.021044999361038208, 1.0024739503860474, 0.5600000023841858, 3.0012500286102295, 0.4025000035762787, 0.2702000141143799, 0.33376002311706543, -0.26236000657081604, -1.9546905755996704, -1.2026371955871582, 53.3123779296875, 179.238, True, DATA014.CSV, 3.476, (False, False, False, False)
84.5374984741211, 82.96249389648438, 87.14989471435547, 78.6875, 11.8286103495, 24.1971435546875, 2019-09-02 13:13:11, 37.6258517, -104.7785, 6204.06844, 9, 2019-09-02 13:13:16, 37.6258483, -104.7784917, 6179.134056, 0.033854998648166656, -0.021105999127030373, 1.0072929859161377, 0.5687500238418579, 2.7562499046325684, 0.4112499952316284, 0.2707599997520447, 0.33698001503944397, -0.2580200135707855, -1.9245574474334717, -1.2003535032272339, 53.10152053833008, 202.233, True, DATA014.CSV, 3.818, (False, False, False, False)
84.5374984741211, 82.96249389648438, 87.11129760742188, 78.6875, 11.8281752355, 24.18951416015625, 2019-09-02 13:13:36, 37.6258483, -104.77848, 6196.194424, 8, 2019-09-02 13:13:39, 37.6258483, -104.7784917, 6179.4621400000005, 0.034098997712135315, -0.022874999791383743, 1.0053409337997437, 0.6212499737739563, 3.0012500286102295, 0.33250001072883606, 0.2788800001144409, 0.3406200110912323, -0.2599799931049347, -1.9421025514602661, -1.3034532070159912, 53.62863540649414, 226.229, True, DATA014.CSV, 3.124, (False, False, False, False)
84.5374984741211, 82.96249389648438, 87.11129760742188, 78.6875, 11.828791647000001, 24.21240234375, 2019-09-02 13:13:58, 37.62585, -104.7784833, 6197.178676, 8, 2019-09-02 13:14:03, 37.6258483, -104.7784917, 6179.4621400000005, 0.035197000950574875, -0.021959999576210976, 1.0054630041122437, 0.9275000095367432, 2.747499942779541, 0.3675000071525574, 0.27215999364852905, 0.3402000069618225, -0.26180002093315125, -2.0043861865997314, -1.2511800527572632, 52.97980880737305, 249.224, True, DATA014.CSV, 3.408, (False, False, False, False)
84.5374984741211, 82.96249389648438, 87.03407287597656, 78.6875, 11.827993938, 24.22003173828125, 2019-09-02 13:14:22, 37.625845, -104.778475, 6210.302036, 8, 2019-09-02 13:14:26, 37.62585, -104.7784917, 6179.790224, 0.03373299911618233, -0.02122800052165985, 1.007841944694519, 0.5862500071525574, 3.0274999141693115, 0.45500001311302185, 0.26236000657081604, 0.33235999941825867, -0.2633399963378906, -1.9165793657302856, -1.2066326141357422, 52.607032775878906, 272.22, True, DATA014.CSV, 3.723, (False, False, False, False)
84.5374984741211, 82.96249389648438, 86.97615051269531, 78.6875, 11.828066457, 24.28106689453125, 2019-09-02 13:14:46, 37.6258467, -104.778475, 6210.630120000001, 9, 2019-09-02 13:14:49, 37.62585, -104.7784933, 6180.118308, 0.03312299773097038, -0.021532999351620674, 1.0086959600448608, 0.4025000035762787, 2.7562499046325684, 0.2887499928474426, 0.2746800184249878, 0.33893999457359314, -0.26263999938964844, -1.8803428411483765, -1.2229280471801758, 53.341617584228516, 296.214, True, DATA014.CSV, 3.038, (False, False, False, False)
84.5374984741211, 82.96249389648438, 87.03407287597656, 78.6875, 11.827703862, 24.303955078125, 2019-09-02 13:15:08, 37.6258467, -104.778475, 6210.630120000001, 9, 2019-09-02 13:15:13, 37.625845, -104.7784967, 6181.10256, 0.032634999603033066, -0.02067899890244007, 1.0073540210723877, 0.6299999952316284, 2.9749999046325684, 0.3149999976158142, 0.2696399986743927, 0.33376002311706543, -0.2695000171661377, -1.8551578521728516, -1.1760045289993286, 53.254249572753906, 319.209, True, DATA014.CSV, 3.388, (False, False, False, False)
84.64999389648438, 82.96249389648438, 87.07267761230469, 78.6875, 11.8286103495, 24.2886962890625, 2019-09-02 13:15:32, 37.6258467, -104.778475, 6210.302036, 9, 2019-09-02 13:15:36, 37.6258467, -104.778495, 6181.758728000001, 0.03592899814248085, -0.02256999909877777, 1.007902979850769, 0.6299999952316284, 2.8612499237060547, 0.24500000476837158, 0.274399995803833, 0.33768001198768616, -0.2602600157260895, -2.041062831878662, -1.2828115224838257, 53.41743087768555, 342.204, True, DATA014.CSV, 3.69, (False, False, False, False)
84.64999389648438, 82.96249389648438, 87.13058471679688, 78.6875, 11.827196229, 24.2581787109375, 2019-09-02 13:15:56, 37.6258417, -104.7784767, 6208.661616, 9, 2019-09-02 13:15:59, 37.6258467, -104.778495, 6182.0868120000005, 0.03617300093173981, -0.022935999557375908, 1.0053409337997437, 0.7699999809265137, 2.9487500190734863, 0.2887499928474426, 0.27215999364852905, 0.3364199995994568, -0.2679600119590759, -2.0601248741149902, -1.3069278001785278, 53.29246520996094, 366.198, True, DATA014.CSV, 3.881, (False, False, False, False)
84.64999389648438, 82.96249389648438, 87.07267761230469, 78.80000305175781, 11.8277401215, 24.242919921875, 2019-09-02 13:16:21, 37.6258417, -104.7784783, 6208.661616, 9, 2019-09-02 13:16:23, 37.6258467, -104.778495, 6182.0868120000005, 0.031537000089883804, -0.019276000559329987, 1.0111359357833862, 0.4987500011920929, 2.721250057220459, 0.21875, 0.27090001106262207, 0.33908000588417053, -0.2608200013637543, -1.786133050918579, -1.0921375751495361, 52.94228744506836, 391.193, True, DATA014.CSV, 2.226, (False, False, False, False)
84.64999389648438, 82.96249389648438, 87.07267761230469, 78.80000305175781, 11.827631343, 24.2581787109375, 2019-09-02 13:16:45, 37.62584, -104.77848, 6207.34928, 9, 2019-09-02 13:16:46, 37.6258467, -104.778495, 6182.414896, 0.03312299773097038, -0.023423999547958374, 1.0074759721755981, 0.4987500011920929, 2.8262500762939453, 0.4112499952316284, 0.26809999346733093, 0.33768001198768616, -0.26460000872612, -1.8825385570526123, -1.331897258758545, 52.76770782470703, 415.187, True, DATA014.CSV, 1.533, (False, False, False, False)
84.64999389648438, 82.96249389648438, 87.11129760742188, 78.80000305175781, 11.828138976, 24.28106689453125, 2019-09-02 13:17:08, 37.62584, -104.77848, 6207.34928, 9, 2019-09-02 13:17:09, 37.6258467, -104.7784933, 6183.071064000001, 0.02903600037097931, -0.022935999557375908, 1.0031449794769287, 0.6825000047683716, 3.009999990463257, 0.2537499964237213, 0.2699200212955475, 0.33726000785827637, -0.2603999972343445, -1.6575285196304321, -1.309787631034851, 52.99140930175781, 438.182, True, DATA014.CSV, 1.851, (False, False, False, False)
84.64999389648438, 82.96249389648438, 87.09197998046875, 78.9124984741211, 11.8279576785, 24.2734375, 2019-09-02 13:17:28, 37.62584, -104.77848, 6207.021196000001, 9, 2019-09-02 13:17:33, 37.625845, -104.7784933, 6182.74298, 0.03367199748754501, -0.022630998864769936, 1.0055240392684937, 0.8837500214576721, 2.84375, 0.3675000071525574, 0.2690800130367279, 0.3357200026512146, -0.2540999948978424, -1.9174625873565674, -1.2893195152282715, 53.0322151184082, 458.178, True, DATA014.CSV, 5.15, (False, False, False, False)
84.76249694824219, 82.96249389648438, 86.97615051269531, 78.9124984741211, 11.827776381, 24.3192138671875, 2019-09-02 13:17:52, 37.62584, -104.77848, 6207.021196000001, 9, 2019-09-02 13:17:56, 37.625845, -104.7784933, 6182.74298, 0.032329998910427094, -0.027084000408649445, 1.0066219568252563, 0.4375, 3.1937499046325684, 0.2800000011920929, 0.2686600089073181, 0.3343200087547302, -0.26684001088142395, -1.8388893604278564, -1.541218638420105, 53.105403900146484, 482.173, True, DATA014.CSV, 4.5, (False, False, False, False)
84.5374984741211, 83.07499694824219, 87.01476287841797, 78.9124984741211, 11.8281752355, 24.364990234375, 2019-09-02 13:18:15, 37.62584, -104.7784817, 6206.693112, 9, 2019-09-02 13:18:19, 37.625845, -104.7784933, 6182.414896, 0.031964000314474106, -0.024277999997138977, 1.0013760328292847, 0.5600000023841858, 2.9749999046325684, 0.45500001311302185, 0.26754000782966614, 0.33264002203941345, -0.2699200212955475, -1.827728271484375, -1.388843297958374, 53.12947082519531, 505.168, True, DATA014.CSV, 4.829, (False, False, False, False)
84.42500305175781, 82.96249389648438, 86.93754577636719, 78.9124984741211, 11.8279576785, 24.3497314453125, 2019-09-02 13:18:41, 37.62584, -104.7784817, 6206.693112, 9, 2019-09-02 13:18:43, 37.625845, -104.7784933, 6182.414896, 0.030743999406695366, -0.02592499926686287, 1.0010099411010742, 0.6299999952316284, 2.8524999618530273, 0.39375001192092896, 0.2682400047779083, 0.33264002203941345, -0.26166000962257385, -1.7585816383361816, -1.4835625886917114, 53.20261001586914, 531.163, True, DATA014.CSV, 2.105, (False, False, False, False)
84.3125, 82.8499984741211, 86.87962341308594, 79.02499389648438, 11.827413786000001, 24.3802490234375, 2019-09-02 13:19:06, 37.62584, -104.7784817, 6206.365028, 9, 2019-09-02 13:19:06, 37.625845, -104.7784933, 6182.414896, 0.03617300093173981, -0.0245829988270998, 1.010098934173584, 0.4724999964237213, 3.1500000953674316, 0.20125000178813934, 0.265720009803772, 0.33376002311706543, -0.2738400101661682, -2.050355911254883, -1.3941446542739868, 52.844730377197266, 556.156, True, DATA014.CSV, 0.442, (False, False, False, False)
84.19999694824219, 82.8499984741211, 86.82170867919922, 79.02499389648438, 11.8270149315, 24.426025390625, 2019-09-02 13:19:25, 37.6258367, -104.778485, 6205.708860000001, 8, 2019-09-02 13:19:29, 37.62584, -104.7784883, 6184.055316, 0.031293001025915146, -0.01903199963271618, 1.006377935409546, 0.6737499833106995, 2.9749999046325684, 0.2537499964237213, 0.26460000872612, 0.33334001898765564, -0.26109999418258667, -1.780701994895935, -1.0834132432937622, 52.761985778808594, 575.153, True, DATA014.CSV, 4.784, (False, False, False, False)
83.9749984741211, 82.96249389648438, 86.84101867675781, 79.13749694824219, 11.8273050075, 24.50994873046875, 2019-09-02 13:20:07, 37.625835, -104.7784917, 6204.724608, 8, 2019-09-02 13:20:08, 37.6258383, -104.7784883, 6184.711484, 0.03373299911618233, -0.023057999089360237, 1.007841944694519, 0.4375, 2.9049999713897705, 0.29750001430511475, 0.2749600112438202, 0.33208000659942627, -0.2588599920272827, -1.9165031909942627, -1.3106178045272827, 53.94452667236328, 17.456, True, DATA015.CSV, 1.659, (False, False, False, False)
83.9749984741211, 82.96249389648438, 86.89892578125, 79.13749694824219, 11.8275225645, 24.4412841796875, 2019-09-02 13:20:31, 37.625835, -104.7784917, 6204.396524000001, 9, 2019-09-02 13:20:32, 37.6258383, -104.7784883, 6184.711484, 0.03684400022029877, -0.023423999547958374, 1.0058900117874146, 0.5162500143051147, 3.0274999141693115, 0.35875001549720764, 0.274399995803833, 0.33180001378059387, -0.2682400047779083, -2.0971386432647705, -1.3339965343475342, 53.910888671875, 41.45, True, DATA015.CSV, 0.977, (False, False, False, False)
83.9749984741211, 83.1875, 86.97615051269531, 79.13749694824219, 11.8275225645, 24.3955078125, 2019-09-02 13:20:50, 37.625835, -104.7784917, 6204.396524000001, 9, 2019-09-02 13:20:56, 37.6258383, -104.7784883, 6184.711484, 0.030988000333309174, -0.02379000000655651, 1.0050359964370728, 0.7612500190734863, 3.0274999141693115, 0.1837500035762787, 0.2706200182437897, 0.33278000354766846, -0.26166000962257385, -1.7655311822891235, -1.3559833765029907, 53.43834686279297, 60.446, True, DATA015.CSV, 5.328, (False, False, False, False)
84.19999694824219, 83.30000305175781, 86.9182357788086, 79.13749694824219, 11.826978672000001, 24.38787841796875, 2019-09-02 13:21:15, 37.6258367, -104.7784883, 6204.06844, 9, 2019-09-02 13:21:18, 37.6258383, -104.7784867, 6185.367652, 0.032878998667001724, -0.02592499926686287, 1.0115020275115967, 0.44624999165534973, 3.184999942779541, 0.3675000071525574, 0.27145999670028687, 0.335999995470047, -0.26809999346733093, -1.8611400127410889, -1.468180775642395, 53.25532150268555, 85.441, True, DATA015.CSV, 3.646, (False, False, False, False)
84.08749389648438, 83.1875, 86.89892578125, 79.13749694824219, 11.8272324885, 24.44891357421875, 2019-09-02 13:21:40, 37.6258367, -104.7784883, 6203.740356, 9, 2019-09-02 13:21:42, 37.6258383, -104.7784867, 6185.367652, 0.03617300093173981, -0.026290999725461006, 0.9996680021286011, 0.7087500095367432, 2.9574999809265137, 0.3412500023841858, 0.2710399925708771, 0.33726000785827637, -0.2736999988555908, -2.0716288089752197, -1.5065163373947144, 53.107200622558594, 110.435, True, DATA015.CSV, 1.912, (False, False, False, False)
83.9749984741211, 83.1875, 86.87962341308594, 79.13749694824219, 11.8278126405, 24.5023193359375, 2019-09-02 13:22:00, 37.6258367, -104.7784883, 6203.740356, 9, 2019-09-02 13:22:06, 37.6258383, -104.7784867, 6185.367652, 0.0344650000333786, -0.022265000268816948, 1.007841944694519, 0.7262499928474426, 2.773750066757202, 0.2887499928474426, 0.2707599997520447, 0.335999995470047, -0.2780400216579437, -1.958093285560608, -1.2655584812164307, 53.183021545410156, 130.43, True, DATA015.CSV, 5.255, (False, False, False, False)
84.08749389648438, 83.30000305175781, 86.9182357788086, 79.13749694824219, 11.827268748, 24.58624267578125, 2019-09-02 13:22:25, 37.6258367, -104.7784883, 6203.740356, 9, 2019-09-02 13:22:28, 37.6258317, -104.7784883, 6185.367652, 0.031231999397277832, -0.021044999361038208, 1.006500005722046, 0.6474999785423279, 2.572499990463257, 0.38499999046325684, 0.2707599997520447, 0.33376002311706543, -0.2608200013637543, -1.7769469022750854, -1.1978280544281006, 53.370399475097656, 155.425, True, DATA015.CSV, 3.587, (False, False, False, False)
84.19999694824219, 83.4124984741211, 87.18851470947266, 79.02499389648438, 11.8270149315, 24.50994873046875, 2019-09-02 13:22:50, 37.6258367, -104.7784883, 6203.740356, 9, 2019-09-02 13:22:52, 37.6258317, -104.7784883, 6185.367652, 0.03818599879741669, -0.02189899981021881, 1.00375497341156, 0.7612500190734863, 2.7562499046325684, 0.21000000834465027, 0.26739999651908875, 0.3301199972629547, -0.2602600157260895, -2.178143262863159, -1.2498281002044678, 53.32776641845703, 180.42, True, DATA015.CSV, 1.906, (False, False, False, False)
84.19999694824219, 83.4124984741211, 87.18851470947266, 79.02499389648438, 11.826616077, 24.4107666015625, 2019-09-02 13:23:10, 37.6258367, -104.7784883, 6203.4122720000005, 7, 2019-09-02 13:23:16, 37.62583, -104.7784883, 6185.367652, 0.03245199844241142, -0.02189899981021881, 1.0066829919815063, 0.6912500262260437, 2.992500066757202, 0.14875000715255737, 0.2682400047779083, 0.3357200026512146, -0.2706200182437897, -1.8459430932998657, -1.2461940050125122, 52.944828033447266, 200.416, True, DATA015.CSV, 5.223, (False, False, False, False)
84.3125, 83.4124984741211, 87.24642944335938, 78.9124984741211, 11.827631343, 24.38787841796875, 2019-09-02 13:23:35, 37.6258367, -104.7784883, 6203.4122720000005, 9, 2019-09-02 13:23:38, 37.62583, -104.7784883, 6185.039568, 0.03190299868583679, -0.023972999304533005, 1.0035719871520996, 0.3675000071525574, 2.773750066757202, 0.21875, 0.26768001914024353, 0.3298400044441223, -0.2696399986743927, -1.820268988609314, -1.3684026002883911, 53.380882263183594, 225.411, True, DATA015.CSV, 3.558, (False, False, False, False)
84.42500305175781, 83.4124984741211, 87.36224365234375, 78.9124984741211, 11.827196229, 24.33447265625, 2019-09-02 13:24:00, 37.6258367, -104.7784867, 6203.084188000001, 9, 2019-09-02 13:24:02, 37.62583, -104.7784883, 6185.039568, 0.03269600123167038, -0.023972999304533005, 1.006377935409546, 0.5337499976158142, 2.9574999809265137, 0.2887499928474426, 0.273140013217926, 0.33278000354766846, -0.2583000063896179, -1.8602886199951172, -1.364588737487793, 53.698551177978516, 250.405, True, DATA015.CSV, 1.852, (False, False, False, False)
84.3125, 83.30000305175781, 87.34295654296875, 78.80000305175781, 11.827196229, 24.26580810546875, 2019-09-02 13:24:20, 37.6258367, -104.7784867, 6202.756104, 9, 2019-09-02 13:24:26, 37.6258267, -104.7784867, 6184.383400000001, 0.029401998966932297, -0.021777000278234482, 1.0040600299835205, 0.49000000953674316, 2.966249942779541, 0.3062500059604645, 0.26669999957084656, 0.33305999636650085, -0.26712000370025635, -1.6769250631332397, -1.2424900531768799, 53.006229400634766, 270.401, True, DATA015.CSV, 5.187, (False, False, False, False)
84.3125, 83.30000305175781, 87.43946838378906, 78.80000305175781, 11.826906153, 24.2276611328125, 2019-09-02 13:24:45, 37.6258367, -104.7784867, 6202.756104, 9, 2019-09-02 13:24:48, 37.6258267, -104.7784867, 6184.055316, 0.03379400074481964, -0.02324100024998188, 1.0050970315933228, 0.6387500166893005, 2.7825000286102295, 0.35875001549720764, 0.2640399932861328, 0.3299800157546997, -0.25200000405311584, -1.9251947402954102, -1.3246222734451294, 52.98573303222656, 295.396, True, DATA015.CSV, 3.518, (False, False, False, False)
84.42500305175781, 83.30000305175781, 87.45877838134766, 78.80000305175781, 11.827413786000001, 24.21240234375, 2019-09-02 13:25:10, 37.6258383, -104.7784833, 6202.756104, 9, 2019-09-02 13:25:12, 37.6258267, -104.7784883, 6184.055316, 0.03580699861049652, -0.022326000034809113, 1.0096110105514526, 0.5162500143051147, 2.9487500190734863, 0.23624999821186066, 0.2690800130367279, 0.3350200057029724, -0.2587200105190277, -2.030712127685547, -1.2668017148971558, 53.09059143066406, 320.391, True, DATA015.CSV, 1.847, (False, False, False, False)
84.42500305175781, 83.30000305175781, 87.47808837890625, 78.80000305175781, 11.8259271465, 24.1971435546875, 2019-09-02 13:25:30, 37.6258383, -104.7784683, 6202.756104, 10, 2019-09-02 13:25:36, 37.6258267, -104.7784883, 6183.727232, 0.03190299868583679, -0.020068999379873276, 1.0012539625167847, 0.5512499809265137, 2.9574999809265137, 0.3675000071525574, 0.2734200060367584, 0.3304000198841095, -0.26291999220848083, -1.8246341943740845, -1.1482750177383423, 53.929195404052734, 340.385, True, DATA015.CSV, 5.193, (False, False, False, False)
84.3125, 83.30000305175781, 87.43946838378906, 78.80000305175781, 11.826035925000001, 24.18951416015625, 2019-09-02 13:25:55, 37.62584, -104.7784717, 6204.396524000001, 10, 2019-09-02 13:25:58, 37.6258267, -104.7784883, 6183.399148, 0.032634999603033066, -0.024765999987721443, 1.00369393825531, 0.5950000286102295, 2.799999952316284, 0.4637500047683716, 0.2736999988555908, 0.3313800096511841, -0.26221999526023865, -1.8617438077926636, -1.4134780168533325, 53.874656677246094, 365.38, True, DATA015.CSV, 3.525, (False, False, False, False)
84.42500305175781, 83.30000305175781, 87.40086364746094, 78.80000305175781, 11.8257821085, 24.20477294921875, 2019-09-02 13:26:44, 37.62584, -104.7784717, 6205.052692, 10, 2019-09-02 13:26:47, 37.625825, -104.7784883, 6183.071064000001, 0.032207999378442764, -0.028974998742341995, 1.0025349855422974, 0.6387500166893005, 2.6075000762939453, 0.2887499928474426, 0.27257999777793884, 0.3308199942111969, -0.26712000370025635, -1.83931565284729, -1.6554864645004272, 53.80690383911133, 414.37, True, DATA015.CSV, 2.255, (False, False, False, False)
84.5374984741211, 83.1875, 87.26573181152344, 78.80000305175781, 11.826072184500001, 24.2886962890625, 2019-09-02 13:27:09, 37.6258417, -104.7784717, 6205.708860000001, 10, 2019-09-02 13:27:10, 37.625825, -104.77849, 6182.74298, 0.03513599932193756, -0.02214299887418747, 1.0062559843063354, 0.9012500047683716, 2.966249942779541, 0.5512499809265137, 0.27188000082969666, 0.3295600116252899, -0.26600000262260437, -1.9993324279785156, -1.2606092691421509, 53.84189987182617, 439.365, True, DATA015.CSV, 0.56, (False, False, False, False)
84.42500305175781, 83.1875, 87.20780944824219, 78.80000305175781, 11.825637070500001, 24.364990234375, 2019-09-02 13:27:28, 37.6258467, -104.7784583, 6207.021196000001, 10, 2019-09-02 13:27:33, 37.6258167, -104.7784933, 6182.0868120000005, 0.0344650000333786, -0.022081999108195305, 1.0011929273605347, 0.5950000286102295, 2.887500047683716, 0.14000000059604645, 0.2746800184249878, 0.3352999985218048, -0.26236000657081604, -1.9710885286331177, -1.2634928226470947, 53.644561767578125, 458.361, True, DATA015.CSV, 4.873, (False, False, False, False)
84.5374984741211, 83.1875, 87.13058471679688, 78.80000305175781, 11.826507298500001, 24.3955078125, 2019-09-02 13:27:51, 37.6258467, -104.7784567, 6207.677364, 10, 2019-09-02 13:27:57, 37.6258167, -104.7784933, 6181.758728000001, 0.03226900100708008, -0.0231189988553524, 1.0066219568252563, 0.7612500190734863, 3.0450000762939453, 0.21000000834465027, 0.265720009803772, 0.33180001378059387, -0.26712000370025635, -1.8356024026870728, -1.3156758546829224, 53.00927734375, 481.356, True, DATA015.CSV, 5.279, (False, False, False, False)
84.5374984741211, 83.1875, 87.09197998046875, 78.80000305175781, 11.8259271465, 24.4107666015625, 2019-09-02 13:28:16, 37.62585, -104.7784583, 6208.661616, 10, 2019-09-02 13:28:20, 37.6258183, -104.778495, 6181.758728000001, 0.03757599741220474, -0.024094998836517334, 1.0090010166168213, 0.4025000035762787, 2.668750047683716, 0.27125000953674316, 0.26726001501083374, 0.3309600055217743, -0.2591400146484375, -2.1321470737457275, -1.3679661750793457, 53.24189758300781, 506.351, True, DATA015.CSV, 3.585, (False, False, False, False)
84.5374984741211, 83.1875, 87.13058471679688, 78.80000305175781, 11.8257095895, 24.426025390625, 2019-09-02 13:28:41, 37.62585, -104.7784583, 6209.973952, 10, 2019-09-02 13:28:43, 37.6258183, -104.778495, 6181.758728000001, 0.03257399797439575, -0.020617999136447906, 1.0025960206985474, 0.5425000190734863, 2.9312500953674316, 0.35875001549720764, 0.274260014295578, 0.325080007314682, -0.2581599950790405, -1.860472321510315, -1.178099513053894, 54.473297119140625, 531.345, True, DATA015.CSV, 1.893, (False, False, False, False)
84.64999389648438, 83.1875, 87.07267761230469, 78.80000305175781, 11.8254195135, 24.41839599609375, 2019-09-02 13:29:01, 37.62585, -104.7784617, 6209.317784, 10, 2019-09-02 13:29:07, 37.6258183, -104.778495, 6181.758728000001, 0.0331839993596077, -0.024094998836517334, 1.0011929273605347, 0.7437499761581421, 3.0537500381469727, 0.3675000071525574, 0.27272000908851624, 0.32816001772880554, -0.2599799931049347, -1.8977935314178467, -1.3786306381225586, 54.048545837402344, 551.341, True, DATA015.CSV, 5.223, (False, False, False, False)
84.5374984741211, 83.07499694824219, 86.97615051269531, 78.80000305175781, 11.825020659, 24.44891357421875, 2019-09-02 13:29:26, 37.62585, -104.7784617, 6209.317784, 10, 2019-09-02 13:29:30, 37.6258183, -104.778495, 6181.758728000001, 0.03281800076365471, -0.023302000015974045, 1.0054630041122437, 0.6650000214576721, 3.009999990463257, 0.3412500023841858, 0.2679600119590759, 0.3316600024700165, -0.2605400085449219, -1.8689512014389038, -1.327614426612854, 53.255985260009766, 576.335, True, DATA015.CSV, 3.529, (False, False, False, False)
84.64999389648438, 83.1875, 87.14989471435547, 78.80000305175781, 11.824803102, 24.4718017578125, 2019-09-02 13:30:32, 37.6258467, -104.7784667, 6209.6458680000005, 10, 2019-09-02 13:30:33, 37.6258183, -104.7784983, 6181.430644, 0.03373299911618233, -0.022081999108195305, 1.007841944694519, 0.5162500143051147, 2.9049999713897705, 0.14000000059604645, 0.2688000202178955, 0.3351600170135498, -0.26586002111434937, -1.9165443181991577, -1.2551599740982056, 53.04978561401367, 41.576, True, DATA016.CSV, 0.796, (False, False, False, False)
84.5374984741211, 83.07499694824219, 87.07267761230469, 78.80000305175781, 11.825020659, 24.46417236328125, 2019-09-02 13:31:17, 37.6258467, -104.7784683, 6209.6458680000005, 10, 2019-09-02 13:31:20, 37.625815, -104.7785033, 6183.399148, 0.03159799799323082, -0.022204000502824783, 1.00381600856781, 0.5162500143051147, 2.9749999046325684, 0.17499999701976776, 0.27145999670028687, 0.32774001359939575, -0.26278001070022583, -1.8025134801864624, -1.2671526670455933, 53.954219818115234, 86.566, True, DATA016.CSV, 3.524, (False, False, False, False)
84.5374984741211, 83.07499694824219, 87.09197998046875, 78.80000305175781, 11.825129437500001, 24.487060546875, 2019-09-02 13:31:41, 37.6258467, -104.7784683, 6209.6458680000005, 10, 2019-09-02 13:31:43, 37.625815, -104.7785033, 6183.399148, 0.03336700052022934, -0.023545999079942703, 1.0072319507598877, 0.2537499964237213, 2.9749999046325684, 0.17499999701976776, 0.2703399956226349, 0.33250001072883606, -0.2601200044155121, -1.8968497514724731, -1.339155912399292, 53.432926177978516, 111.561, True, DATA016.CSV, 1.835, (False, False, False, False)
84.64999389648438, 83.07499694824219, 87.16920471191406, 78.80000305175781, 11.8253469945, 24.49468994140625, 2019-09-02 13:32:02, 37.6258467, -104.7784683, 6209.973952, 10, 2019-09-02 13:32:07, 37.625815, -104.7785017, 6183.399148, 0.03501399978995323, -0.0231189988553524, 1.0073540210723877, 0.5774999856948853, 2.7825000286102295, 0.612500011920929, 0.2647400200366974, 0.3312399983406067, -0.2644599974155426, -1.9901833534240723, -1.3147200345993042, 52.953216552734375, 131.557, True, DATA016.CSV, 5.159, (False, False, False, False)
84.64999389648438, 82.96249389648438, 87.03407287597656, 78.80000305175781, 11.8247668425, 24.487060546875, 2019-09-02 13:32:27, 37.6258467, -104.7784683, 6209.973952, 10, 2019-09-02 13:32:30, 37.6258167, -104.7785, 6185.695736000001, 0.031049000099301338, -0.02537599951028824, 1.0048530101776123, 0.6299999952316284, 2.8262500762939453, 0.2800000011920929, 0.27174001932144165, 0.3395000100135803, -0.26809999346733093, -1.76925790309906, -1.446608304977417, 52.99421310424805, 156.552, True, DATA016.CSV, 3.531, (False, False, False, False)
84.5374984741211, 83.07499694824219, 86.99545288085938, 78.80000305175781, 11.82494814, 24.57861328125, 2019-09-02 13:33:12, 37.6258483, -104.7784683, 6209.973952, 9, 2019-09-02 13:33:17, 37.62582, -104.7784967, 6191.273164, 0.02848699875175953, -0.019763998687267303, 1.005950927734375, 0.6037499904632568, 2.9574999809265137, 0.21875, 0.26712000370025635, 0.33796000480651855, -0.28168001770973206, -1.6217827796936035, -1.1255499124526978, 52.6424674987793, 201.541, True, DATA016.CSV, 5.139, (False, False, False, False)
84.5374984741211, 83.07499694824219, 87.07267761230469, 78.80000305175781, 11.824513026, 24.50994873046875, 2019-09-02 13:33:37, 37.6258483, -104.7784683, 6209.973952, 9, 2019-09-02 13:33:40, 37.625825, -104.7784983, 6193.897836, 0.02781599946320057, -0.027998998761177063, 1.0147960186004639, 0.5337499976158142, 2.7125000953674316, 0.4025000035762787, 0.27257999777793884, 0.33698001503944397, -0.2581599950790405, -1.569512128829956, -1.5804333686828613, 53.28907012939453, 226.537, True, DATA016.CSV, 3.492, (False, False, False, False)
84.42500305175781, 83.07499694824219, 87.03407287597656, 78.80000305175781, 11.8240416525, 24.57861328125, 2019-09-02 13:34:02, 37.6258483, -104.7784717, 6210.302036, 8, 2019-09-02 13:34:03, 37.6258317, -104.7784833, 6197.178676, 0.03525799885392189, -0.022081999108195305, 1.0028399229049683, 0.6212499737739563, 2.887500047683716, 0.32374998927116394, 0.27230000495910645, 0.33754000067710876, -0.2692199945449829, -2.013096809387207, -1.2614185810089111, 53.21378707885742, 251.532, True, DATA016.CSV, 1.747, (False, False, False, False)
84.42500305175781, 83.1875, 86.99545288085938, 78.80000305175781, 11.823860355, 24.57861328125, 2019-09-02 13:34:22, 37.6258483, -104.7784683, 6209.6458680000005, 9, 2019-09-02 13:34:27, 37.625835, -104.77848, 6197.834844, 0.033427998423576355, -0.019886000081896782, 1.0045479536056519, 0.5600000023841858, 2.940000057220459, 0.3149999976158142, 0.26726001501083374, 0.3351600170135498, -0.2588599920272827, -1.9055355787277222, -1.1340773105621338, 52.88921356201172, 271.527, True, DATA016.CSV, 5.076, (False, False, False, False)
84.5374984741211, 83.07499694824219, 86.9182357788086, 78.80000305175781, 11.824875621, 24.54046630859375, 2019-09-02 13:35:11, 37.6258483, -104.77847, 6209.317784, 9, 2019-09-02 13:35:13, 37.625835, -104.77848, 6197.50676, 0.028974998742341995, -0.023180000483989716, 1.0047919750213623, 0.7175000309944153, 3.0799999237060547, 0.24500000476837158, 0.2748199999332428, 0.33292001485824585, -0.2639000117778778, -1.6513307094573975, -1.3215478658676147, 53.859107971191406, 320.516, True, DATA016.CSV, 2.759, (False, False, False, False)
84.64999389648438, 83.07499694824219, 86.97615051269531, 78.80000305175781, 11.824875621, 24.57098388671875, 2019-09-02 13:35:35, 37.6258467, -104.77847, 6209.317784, 10, 2019-09-02 13:35:37, 37.6258333, -104.7784717, 6196.850592000001, 0.03415999934077263, -0.02012999914586544, 1.0066829919815063, 0.5074999928474426, 3.0712499618530273, 0.21875, 0.2734200060367584, 0.33208000659942627, -0.27118000388145447, -1.9430967569351196, -1.1455544233322144, 53.786529541015625, 344.511, True, DATA016.CSV, 2.084, (False, False, False, False)
84.64999389648438, 83.07499694824219, 86.95684051513672, 78.80000305175781, 11.8239691335, 24.60150146484375, 2019-09-02 13:36:20, 37.6258467, -104.7784717, 6208.661616, 9, 2019-09-02 13:36:23, 37.62583, -104.7784717, 6197.50676, 0.03080499917268753, -0.0231189988553524, 1.005584955215454, 0.7962499856948853, 2.7825000286102295, 0.24500000476837158, 0.275519996881485, 0.33362001180648804, -0.26208001375198364, -1.7541818618774414, -1.3170320987701416, 53.871585845947266, 389.501, True, DATA016.CSV, 3.751, (False, False, False, False)
84.64999389648438, 83.07499694824219, 86.86032104492188, 78.9124984741211, 11.8244767665, 24.64727783203125, 2019-09-02 13:36:45, 37.6258467, -104.7784783, 6208.005448, 9, 2019-09-02 13:36:47, 37.6258267, -104.7784733, 6197.50676, 0.03178099915385246, -0.022508999332785606, 1.0055240392684937, 0.6737499833106995, 3.202500104904175, 0.45500001311302185, 0.27257999777793884, 0.33334001898765564, -0.2800000011920929, -1.8098578453063965, -1.2823714017868042, 53.59367370605469, 414.496, True, DATA016.CSV, 2.026, (False, False, False, False)
84.5374984741211, 83.07499694824219, 86.86032104492188, 78.9124984741211, 11.8244767665, 24.67779541015625, 2019-09-02 13:37:05, 37.6258467, -104.7784783, 6207.677364, 10, 2019-09-02 13:37:10, 37.6258267, -104.7784733, 6197.50676, 0.031049000099301338, -0.026108000427484512, 1.0048530101776123, 0.6737499833106995, 3.0712499618530273, 0.1837500035762787, 0.27272000908851624, 0.3309600055217743, -0.275519996881485, -1.769225001335144, -1.4883188009262085, 53.8094482421875, 434.492, True, DATA016.CSV, 5.394, (False, False, False, False)
84.3125, 83.07499694824219, 86.9182357788086, 78.9124984741211, 11.824585545, 24.67779541015625, 2019-09-02 13:37:30, 37.6258467, -104.7784783, 6207.677364, 9, 2019-09-02 13:37:33, 37.62583, -104.778475, 6198.491012, 0.03092699870467186, -0.020495999604463577, 1.0031449794769287, 0.42000001668930054, 3.1500000953674316, 0.3499999940395355, 0.2738400101661682, 0.3350200057029724, -0.2686600089073181, -1.7655035257339478, -1.1704896688461304, 53.58201217651367, 459.487, True, DATA016.CSV, 3.711, (False, False, False, False)
84.3125, 83.07499694824219, 86.95684051513672, 79.02499389648438, 11.824259209500001, 24.64727783203125, 2019-09-02 13:37:55, 37.625855, -104.7784883, 6209.317784, 10, 2019-09-02 13:37:57, 37.6258283, -104.77847, 6199.803348, 0.033610999584198, -0.022630998864769936, 1.006377935409546, 0.5950000286102295, 3.0625, 0.6737499833106995, 0.2697800099849701, 0.33880001306533813, -0.26278001070022583, -1.9123696088790894, -1.2882260084152222, 52.849639892578125, 484.482, True, DATA016.CSV, 2.033, (False, False, False, False)
84.42500305175781, 83.1875, 87.07267761230469, 78.9124984741211, 11.823642798, 24.6243896484375, 2019-09-02 13:38:15, 37.625855, -104.7784883, 6208.9897, 10, 2019-09-02 13:38:20, 37.6258283, -104.77847, 6200.131432, 0.03226900100708008, -0.023423999547958374, 1.0046700239181519, 0.699999988079071, 2.913749933242798, 0.14000000059604645, 0.27257999777793884, 0.33250001072883606, -0.2710399925708771, -1.8391510248184204, -1.3356157541275024, 53.66453552246094, 504.477, True, DATA016.CSV, 5.346, (False, False, False, False)
84.42500305175781, 83.1875, 87.0533676147461, 78.9124984741211, 11.82349776, 24.5938720703125, 2019-09-02 13:38:40, 37.625855, -104.7784883, 6208.9897, 10, 2019-09-02 13:38:43, 37.6258283, -104.77847, 6200.131432, 0.032878998667001724, -0.02403399907052517, 1.0091229677200317, 0.5249999761581421, 2.581249952316284, 0.14875000715255737, 0.27090001106262207, 0.33348000049591064, -0.27188000082969666, -1.8656082153320312, -1.3643394708633423, 53.40842056274414, 529.472, True, DATA016.CSV, 3.662, (False, False, False, False)
84.5374984741211, 83.30000305175781, 87.14989471435547, 78.9124984741211, 11.8232439435, 24.548095703125, 2019-09-02 13:39:05, 37.625855, -104.7784883, 6208.9897, 10, 2019-09-02 13:39:07, 37.62583, -104.77847, 6200.131432, 0.035197000950574875, -0.020739998668432236, 1.0091229677200317, 0.5425000190734863, 3.009999990463257, 0.38499999046325684, 0.2756600081920624, 0.335999995470047, -0.26250001788139343, -1.9971771240234375, -1.1774057149887085, 53.68601989746094, 554.466, True, DATA016.CSV, 1.992, (False, False, False, False)
84.42500305175781, 83.1875, 87.18851470947266, 79.02499389648438, 11.8236065385, 24.50994873046875, 2019-09-02 13:39:25, 37.625855, -104.7784883, 6208.9897, 10, 2019-09-02 13:39:30, 37.6258267, -104.77847, 6200.459516, 0.03495299816131592, -0.02379000000655651, 1.0107089281082153, 0.4987500011920929, 2.983750104904175, 0.3149999976158142, 0.26712000370025635, 0.3362800180912018, -0.26809999346733093, -1.9801026582717896, -1.3483752012252808, 52.78145217895508, 574.461, True, DATA016.CSV, 5.306, (False, False, False, False)
84.19999694824219, 83.07499694824219, 87.07267761230469, 79.02499389648438, 11.824513026, 24.487060546875, 2019-09-02 13:40:07, 37.62585, -104.7784883, 6208.005448, 10, 2019-09-02 13:40:10, 37.6258267, -104.77847, 6200.459516, 0.0331839993596077, -0.021838000044226646, 1.0044870376586914, 0.6650000214576721, 2.5637500286102295, 0.4112499952316284, 0.2682400047779083, 0.3368400037288666, -0.26684001088142395, -1.8916752338409424, -1.2454397678375244, 52.8517951965332, 16.757, True, DATA017.CSV, 2.33, (False, False, False, False)
84.19999694824219, 82.96249389648438, 86.9182357788086, 79.02499389648438, 11.824259209500001, 24.55572509765625, 2019-09-02 13:40:31, 37.62585, -104.7784883, 6207.677364, 10, 2019-09-02 13:40:33, 37.6258267, -104.7784717, 6200.459516, 0.031964000314474106, -0.023545999079942703, 1.0057679414749146, 0.49000000953674316, 3.0799999237060547, 0.21000000834465027, 0.26809999346733093, 0.3367000222206116, -0.26642000675201416, -1.8197883367538452, -1.3411046266555786, 52.84882354736328, 40.752, True, DATA017.CSV, 1.65, (False, False, False, False)
84.19999694824219, 83.07499694824219, 86.86032104492188, 79.13749694824219, 11.8241141715, 24.63201904296875, 2019-09-02 13:40:55, 37.62585, -104.7784883, 6207.677364, 10, 2019-09-02 13:40:56, 37.6258267, -104.7784717, 6200.459516, 0.03080499917268753, -0.02122800052165985, 1.005707025527954, 0.42875000834465027, 3.158750057220459, 0.32374998927116394, 0.27272000908851624, 0.33250001072883606, -0.2690800130367279, -1.7540415525436401, -1.209193229675293, 53.678958892822266, 64.747, True, DATA017.CSV, 0.954, (False, False, False, False)
83.9749984741211, 82.96249389648438, 86.89892578125, 79.13749694824219, 11.824694323500001, 24.66253662109375, 2019-09-02 13:41:14, 37.62585, -104.7784883, 6207.677364, 10, 2019-09-02 13:41:20, 37.6258267, -104.7784733, 6200.459516, 0.028181999921798706, -0.022753000259399414, 1.007964015007019, 0.5862500071525574, 3.036250114440918, 0.3762499988079071, 0.27327999472618103, 0.33935999870300293, -0.26739999651908875, -1.601126790046692, -1.2931309938430786, 53.163814544677734, 83.743, True, DATA017.CSV, 5.325, (False, False, False, False)
83.9749984741211, 82.96249389648438, 86.87962341308594, 79.25, 11.824440507, 24.6854248046875, 2019-09-02 13:41:39, 37.62585, -104.7784883, 6207.677364, 9, 2019-09-02 13:41:43, 37.6258383, -104.7784783, 6201.443768, 0.03470899909734726, -0.02092299982905388, 1.0025349855422974, 0.38499999046325684, 2.8524999618530273, 0.22750000655651093, 0.27286002039909363, 0.3392200171947479, -0.26782000064849854, -1.9824272394180298, -1.1955947875976562, 53.132320404052734, 108.738, True, DATA017.CSV, 3.67, (False, False, False, False)
84.19999694824219, 83.07499694824219, 86.93754577636719, 79.25, 11.824295469, 24.70831298828125, 2019-09-02 13:42:04, 37.6258483, -104.77849, 6207.34928, 10, 2019-09-02 13:42:06, 37.6258383, -104.7784783, 6201.443768, 0.03214699774980545, -0.022753000259399414, 1.0028399229049683, 0.7087500095367432, 2.983750104904175, 0.3499999940395355, 0.27188000082969666, 0.33320000767707825, -0.2692199945449829, -1.8355705738067627, -1.2997359037399292, 53.53328323364258, 133.733, True, DATA017.CSV, 2.002, (False, False, False, False)
84.08749389648438, 83.1875, 86.99545288085938, 79.25, 11.8243317285, 24.670166015625, 2019-09-02 13:42:24, 37.6258483, -104.77849, 6207.34928, 9, 2019-09-02 13:42:30, 37.6258367, -104.7784783, 6202.0999360000005, 0.03562399744987488, -0.022996999323368073, 1.0048530101776123, 0.4025000035762787, 2.799999952316284, 0.23624999821186066, 0.27733999490737915, 0.33698001503944397, -0.26669999957084656, -2.0298655033111572, -1.3110384941101074, 53.77492904663086, 153.729, True, DATA017.CSV, 5.329, (False, False, False, False)
84.19999694824219, 83.30000305175781, 87.07267761230469, 79.13749694824219, 11.8241866905, 24.61676025390625, 2019-09-02 13:42:49, 37.6258483, -104.77849, 6207.34928, 8, 2019-09-02 13:42:53, 37.6258367, -104.7784783, 6202.0999360000005, 0.03415999934077263, -0.019276000559329987, 1.0026569366455078, 0.5774999856948853, 3.018749952316284, 0.26249998807907104, 0.2750999927520752, 0.3404799997806549, -0.2706200182437897, -1.9509223699569702, -1.101371169090271, 53.25741195678711, 178.723, True, DATA017.CSV, 3.635, (False, False, False, False)
84.19999694824219, 83.30000305175781, 87.11129760742188, 79.25, 11.823570279, 24.548095703125, 2019-09-02 13:43:14, 37.6258467, -104.77849, 6207.021196000001, 8, 2019-09-02 13:43:16, 37.6258367, -104.7784783, 6202.0999360000005, 0.03092699870467186, -0.023180000483989716, 1.00369393825531, 0.49000000953674316, 2.8524999618530273, 0.4987500011920929, 0.2745400071144104, 0.3344600200653076, -0.2688000202178955, -1.7644363641738892, -1.3229929208755493, 53.70070266723633, 203.717, True, DATA017.CSV, 1.959, (False, False, False, False)
84.19999694824219, 83.30000305175781, 87.16920471191406, 79.25, 11.823824095500001, 24.517578125, 2019-09-02 13:43:34, 37.6258467, -104.77849, 6207.021196000001, 9, 2019-09-02 13:43:40, 37.6258367, -104.7784783, 6202.0999360000005, 0.034648001194000244, -0.022265000268816948, 1.005950927734375, 0.6650000214576721, 2.8787500858306885, 0.4112499952316284, 0.2741200029850006, 0.33292001485824585, -0.2603999972343445, -1.9721779823303223, -1.2679368257522583, 53.78738784790039, 223.713, True, DATA017.CSV, 5.264, (False, False, False, False)
84.42500305175781, 83.4124984741211, 87.28502655029297, 79.25, 11.8232439435, 24.45654296875, 2019-09-02 13:43:59, 37.625845, -104.77849, 6207.021196000001, 8, 2019-09-02 13:44:03, 37.62584, -104.7784783, 6202.756104, 0.03379400074481964, -0.021410999819636345, 1.0029619932174683, 0.6737499833106995, 2.8787500858306885, 0.39375001192092896, 0.27174001932144165, 0.3395000100135803, -0.26291999220848083, -1.929365873336792, -1.2229511737823486, 52.99421310424805, 248.708, True, DATA017.CSV, 3.574, (False, False, False, False)
