Interior Temperature 1, Interior Temperature 2, Exterior Temperature, Pressure, Humidity, GPS Time, Altitude, Ascent Rate, Latitude, Longitude, GPS Validity, GPS Sentences, Failed GPS Sentences, Number of GPS Satellites, Acceleration (x), Acceleration (y), Acceleration (z), Rotation Rate (x), Rotation Rate (y), Rotation Rate (z), Magnetic Field (x), Magnetic Field (y), Magnetic Field (z), Pitch, Roll, Yaw, Time Since Reset, Data Logging Status, Data Filename, Data Age, Relay States
87.35, 89.825, 20.3, 6.9133450485, 20.3103027344, 2017-08-21 09:42:39, 6984.252192, 27.5521948762, 44.31736, -113.295193333, True, 132, 39, 4, 0.0258029997349, 0.00616099964827, 1.00991594791, -0.320550024509, -5.40675020218, 12.7121896744, 0.237020000815, 0.168980002403, -0.253260016441, -1.46354138851, 0.349528998137, 68.8335723877, 289.135, True, DATA004.CSV, 3.99, (False, False, False, False)
87.2375, 89.7125, 18.1625, 6.73628991, 19.9884738922, 2017-08-21 09:43:16, 6956.036968, 3.18332165927, 44.314841667, -113.29369, True, 142, 46, 4, 0.0136639997363, 0.00872300006449, 0.998935997486, -2.57805013657, 0.447000026703, 3.19219017029, 0.557760000229, 0.0880599990487, -0.215320006013, -0.783644556999, 0.500310659409, 95.3481063843, 324.623, True, DATA004.CSV, 1.531, (False, False, False, False)
87.2375, 89.825, 16.5875, 6.6036889185, 19.9884738922, 2017-08-21 09:43:43, 6873.687884, -82.7169254109, 44.313055, -113.293165, True, 151, 50, 4, 0.00182999996468, 0.0111630000174, 1.01796793938, -0.705550014973, 2.87074971199, -21.6140613556, 0.200620010495, 0.223719999194, -0.227640002966, -0.102994255722, 0.628278195858, 56.2040405273, 353.207, True, DATA004.CSV, 6.272, (False, False, False, False)
87.2375, 89.825, 14.5625, 6.4345746105, 19.9884738922, 2017-08-21 09:44:19, 6879.593396, -70.8510371521, 44.310411667, -113.291998333, True, 157, 55, 0, 0.00725900009274, 0.0056119998917, 1.03205895424, 3.14444994926, 3.3869998455, -19.1815605164, 0.313879996538, 0.0383599996567, -0.246260002255, -0.402978003025, 0.311552643776, 97.3523025513, 388.733, True, DATA004.CSV, 3.905, (False, False, False, False)
87.2375, 89.7125, 13.1, 6.27216831, 19.8289432526, 2017-08-21 09:44:55, 6895.341428, 17.6829702251, 44.308636667, -113.291033333, True, 159, 59, 0, 0.0170189999044, 6.09999988228e-05, 0.998081982136, -3.44430017471, 0.0182499885559, -28.4478111267, 0.407680004835, 0.277759999037, -0.246680006385, -0.976896047592, 0.00350175867788, 70.0526657104, 424.28, True, DATA004.CSV, 1.503, (False, False, False, False)
87.2375, 89.825, 10.625, 6.149756238, 19.669418335, 2017-08-21 09:45:23, 6871.71938, -0.432294737326, 44.305065, -113.289841667, True, 167, 63, 4, 0.000670999987051, -0.00548999989405, 1.03175401688, -5.68429994583, -1.12800014019, -6.53780984879, 0.408520013094, 0.31374001503, -0.233100011945, -0.0372617132962, -0.30486997962, 66.7960281372, 452.574, True, DATA004.CSV, 6.364, (False, False, False, False)
87.125, 89.825, 7.3625, 5.987676273, 19.5072250366, 2017-08-21 09:45:58, 6895.013344, -0.13655038487, 44.301701667, -113.289236667, True, 176, 68, 0, 0.0160429999232, 0.01177299954, 1.01394200325, 4.32570028305, 2.40699982643, -9.1103105545, 0.242060005665, 0.0757400020957, -0.2440200001, -0.906420052052, 0.665238082409, 86.9452133179, 488.168, True, DATA004.CSV, 3.898, (False, False, False, False)
87.125, 89.825, 5.675, 5.8463730015, 19.8262348175, 2017-08-21 09:46:33, 6901.575024, 25.5765864499, 44.298288333, -113.288305, True, 180, 74, 0, 0.0118950000033, 0.0, 1.03742694855, -2.43805003166, -1.17175006866, 10.6996898651, 0.331800013781, 0.348600000143, -0.238700002432, -0.65691703558, 0.0, 57.9055747986, 523.676, True, DATA004.CSV, 1.508, (False, False, False, False)
87.125, 89.825, 3.7625, 5.727768177, 19.3477172852, 2017-08-21 09:47:03, 6922.900484, 23.2413532972, 44.295123333, -113.28753, True, 182, 78, 4, 0.0205569993705, 0.0195199996233, 1.00424301624, 2.09444999695, -0.769250035286, 26.2396888733, 0.200620010495, 0.167439997196, -0.235620006919, -1.17246758938, 1.11354792118, 64.4711990356, 552.418, True, DATA004.CSV, 5.997, (False, False, False, False)
87.125, 89.825, 1.4, 5.594695812, 19.8262348175, 2017-08-21 09:47:38, 6899.934604, -2.46938825124, 44.289823333, -113.286153333, True, 188, 83, 4, 0.0179340001196, -0.00646599987522, 1.03498697281, -0.898050010204, 1.67199969292, 17.1396903992, 0.485520005226, 0.257459998131, -0.242760002613, -0.992688417435, -0.357946246862, 76.3840255737, 588.113, True, DATA004.CSV, 3.458, (False, False, False, False)
87.0125, 89.825, -1.975, 5.44472652, 19.6640453339, 2017-08-21 09:48:17, 7158.464796, 6208.65143299, 44.286713333, -113.284956667, True, 4, 4, 0, 0.0146399997175, -0.000487999990582, 1.01406395435, -5.65805006027, 1.72449994087, 1.20594000816, 0.337960004807, 0.347479999065, -0.245000004768, -0.827119290829, -0.0275725573301, 58.5242729187, 26.44, True, DATA005.CSV, 1.422, (False, False, False, False)
87.0125, 89.7125, -2.9875, 5.330219019, 19.3450737, 2017-08-21 09:48:46, 7861.548808, 6794.22806892, 44.283955, -113.284396667, True, 6, 8, 0, 0.0164090003818, 0.0140300001949, 1.02498292923, 4.45695018768, 0.700749874115, 1.11844003201, 0.275240004063, -0.0379399992526, -0.201460003853, -0.917086541653, 0.784217536449, 112.168373108, 54.803, True, DATA005.CSV, 6.108, (False, False, False, False)
87.0125, 89.7125, -4.7875, 5.2141161, 19.3450737, 2017-08-21 09:49:21, 9396.653844, 1915.05360751, 44.280373333, -113.284111667, True, 7, 12, 4, 0.013419999741, 0.00469699967653, 1.0391960144, 2.26944994926, -1.23300004005, 11.3996896744, 0.237720012665, 0.0397600010037, -0.227640002966, -0.739859163761, 0.258965969086, 94.8248443604, 90.233, True, DATA005.CSV, 3.93, (False, False, False, False)
86.9, 89.7125, -8.6125, 5.098520814, 19.1829738617, 2017-08-21 09:49:57, 10481.299548, 2191.21629906, 44.279211667, -113.284075, True, 8, 14, 4, 0.0154940001667, 0.00189099996351, 0.981489956379, -0.548049986362, 4.72574996948, 6.06219005585, 0.464940011501, 0.338380008936, -0.221060007811, -0.904406011105, 0.110389485955, 68.2731399536, 125.755, True, DATA005.CSV, 1.566, (False, False, False, False)
86.7875, 89.6, -10.8625, 4.98713163, 19.0209121704, 2017-08-21 09:50:25, 10481.299548, 861.73970294, 44.279211667, -113.284075, True, 8, 17, 0, 0.0275719985366, -0.017628999427, 1.06182694435, -7.44304990768, -1.34675014019, 24.9009399414, 0.376040011644, 0.346080005169, -0.238140001893, -1.4872354269, -0.951166629791, 61.6957778931, 154.178, True, DATA005.CSV, 6.297, (False, False, False, False)
86.675, 89.4875, -11.9875, 4.8638855895, 19.3371524811, 2017-08-21 09:50:46, 10481.299548, 0.0, 44.279211667, -113.284075, True, 8, 22, 0, 0.0123219992965, 0.0137249995023, 0.992896974087, 2.23444986343, 3.61449980736, 4.70594024658, 0.585900008678, 0.300579994917, -0.194320008159, -0.710944712162, 0.791959762573, 77.1611404419, 189.792, True, DATA005.CSV, 3.848, (False, False, False, False)
86.5625, 89.375, -16.7125, 4.7340765795, 19.4939117432, 2017-08-21 09:51:37, 10481.299548, 0.0, 44.279211667, -113.284075, True, 8, 25, 6, -0.000548999989405, 0.00487999990582, 1.03260803223, -0.609300017357, 8.87325000763, -16.3290596008, 0.551320016384, 0.0639799982309, -0.223159998655, 0.0304617285728, 0.270771950483, 97.7005004883, 225.644, True, DATA005.CSV, 0.984, (False, False, False, False)
86.45, 89.2625, -19.1875, 4.638677835, 19.0131244659, 2017-08-21 09:52:06, 10481.299548, 0.0, 44.279211667, -113.284075, True, 8, 27, 7, 0.00780799984932, 0.00359899993055, 1.01040399075, 0.624450027943, -3.12300014496, -5.54030990601, 0.220780000091, 0.028140000999, -0.219240009785, -0.442747324705, 0.20408333838, 97.0563964844, 255.129, True, DATA005.CSV, 4.682, (False, False, False, False)
86.3375, 89.2625, -20.3125, 4.5569851815, 19.3292369843, 2017-08-21 09:52:42, 10481.299548, 0.0, 44.279211667, -113.284075, True, 8, 32, 4, 0.0160429999232, 0.00451399991289, 1.0478579998, -2.35930013657, 5.85449981689, -0.789059996605, 0.206780001521, 0.209580004215, -0.23939999938, -0.87713766098, 0.246819257736, 58.9346885681, 291.693, True, DATA005.CSV, 1.203, (False, False, False, False)
86.3375, 89.15, -23.125, 4.448605536, 18.8511791229, 2017-08-21 09:53:12, 10481.299548, 0.0, 44.279211667, -113.284075, True, 8, 34, 7, 0.017689999193, 0.011590000242, 0.977647006512, 6.21570014954, 2.48574995995, 33.2834396362, 0.371140003204, -0.0749000012875, -0.202440008521, -1.03655040264, 0.67920935154, 115.729637146, 320.99, True, DATA005.CSV, 5.192, (False, False, False, False)
86.1125, 89.0375, -25.2625, 4.3518289305, 19.1646556854, 2017-08-21 09:53:47, 10481.299548, 0.0, 44.279211667, -113.284075, True, 8, 38, 6, -0.000365999992937, -0.00573399988934, 1.0444419384, -3.43554997444, -1.16300010681, -7.18530988693, 0.301699995995, 0.310240000486, -0.236880004406, 0.0200776476413, -0.314551383257, 58.520450592, 357.49, True, DATA005.CSV, 1.837, (False, False, False, False)
86.0, 88.925, -28.8625, 4.249178286, 18.5248851776, 2017-08-21 09:54:17, 10481.299548, 0.0, 44.279211667, -113.284075, True, 8, 40, 7, -0.000853999983519, 0.00853999983519, 0.998813986778, -5.99930000305, 1.84699988365, -2.95030999184, 0.369460016489, 0.300020009279, -0.248220011592, 0.0489868894219, 0.489874958992, 65.2416687012, 386.02, True, DATA005.CSV, 6.573, (False, False, False, False)
85.8875, 88.8125, -28.6375, 4.1624093025, 18.8408966064, 2017-08-21 09:54:52, 10481.299548, 0.0, 44.279211667, -113.284075, True, 8, 43, 7, 0.017689999193, -0.0056119998917, 1.00832998753, -0.136800006032, -2.49300003052, 7.61968994141, 0.484820008278, 0.00433999998495, -0.232540011406, -1.00507044792, -0.318884283304, 103.807106018, 421.539, True, DATA005.CSV, 4.206, (False, False, False, False)
85.775, 88.7, -33.3625, 4.0396346355, 18.9975700378, 2017-08-21 09:55:27, 10481.299548, 0.0, 44.279211667, -113.284075, True, 8, 45, 6, 0.0202520005405, 0.0136029999703, 1.02931392193, 4.7107000351, 2.35450005531, 7.3834400177, 0.469840019941, 0.348179996014, -0.221900001168, -1.12706446648, 0.75715392828, 67.7793045044, 457.125, True, DATA005.CSV, 1.778, (False, False, False, False)
85.6625, 88.5875, -35.6125, 3.9504362655, 18.5173091888, 2017-08-21 09:55:56, 10481.299548, 0.0, 44.279211667, -113.284075, True, 8, 47, 7, 0.0150060001761, -0.0239729993045, 1.05731296539, -11.7830495834, -8.27675056458, -6.24905967712, 0.504280030727, 0.00798000022769, -0.224700003862, -0.812911391258, -1.29887402058, 103.413391113, 485.538, True, DATA005.CSV, 6.531, (False, False, False, False)
85.4375, 88.3625, -37.8625, 3.8468791335, 18.8306236267, 2017-08-21 09:56:32, 10481.299548, 0.0, 44.279211667, -113.284075, True, 8, 50, 6, 0.0104919997975, -0.000487999990582, 1.03150999546, -1.95680010319, 0.621999979019, -8.22656059265, 0.179340004921, 0.165340006351, -0.234220013022, -0.582763552666, -0.0271062199026, 61.6459236145, 521.322, True, DATA005.CSV, 3.843, (False, False, False, False)
85.2125, 88.25, -38.425, 3.770842962, 18.6663532257, 2017-08-21 09:57:07, 10481.299548, 0.0, 44.279211667, -113.284075, True, 8, 54, 7, 0.0124439997599, 0.00243999995291, 1.00747597218, -0.670549988747, 4.53324985504, 1.06594002247, 0.286720007658, -0.0247800014913, -0.210280001163, -0.707659840584, 0.138764023781, 109.259552002, 556.865, True, DATA005.CSV, 1.53, (False, False, False, False)
85.1, 88.025, -38.875, 3.7195357695, 18.3455810547, 2017-08-21 09:57:37, 10481.299548, 0.0, 44.279211667, -113.284075, True, 8, 56, 7, 0.0111630000174, 0.00616099964827, 0.983136951923, -0.425549983978, 2.70449995995, 16.3959388733, 0.236460000277, 0.116620004177, -0.2440200001, -0.650522470474, 0.359049320221, 78.0678863525, 586.438, True, DATA005.CSV, 4.716, (False, False, False, False)
84.9875, 87.9125, -44.5, 3.6119900925, 18.1839885712, 2017-08-21 09:58:17, 0.0, 0.0, 0.0, 0.0, True, 0, 0, 7, 0.00902799982578, 0.00738099962473, 1.07585692406, -3.69805002213, 4.76074981689, 17.0521888733, 0.407680004835, -0.00322000007145, -0.221760004759, -0.480772018433, 0.393075942993, 104.772529602, 26.537, True, DATA006.CSV, 1.328, (False, False, False, False)
84.7625, 87.6875, -47.0875, 3.5269253055, 18.497133255, 2017-08-21 09:58:45, 0.0, 0.0, 0.0, 0.0, True, 0, 3, 7, 0.0159210003912, 0.0154940001667, 1.04438102245, 9.49695014954, 6.24825000763, -2.96780991554, 0.122780002654, 0.192919999361, -0.195859998465, -0.873278081417, 0.849953830242, 46.7938804626, 54.82, True, DATA006.CSV, 6.195, (False, False, False, False)
84.5375, 87.575, -49.45, 3.431091447, 18.4920978546, 2017-08-21 09:59:22, 0.0, 0.0, 0.0, 0.0, True, 0, 5, 7, 0.0129319997504, 0.00725900009274, 1.0418189764, 5.46320009232, 1.13824987411, -12.7590608597, 0.261240005493, 0.0533400028944, -0.239540010691, -0.711153209209, 0.399208813906, 92.7799606323, 91.416, True, DATA006.CSV, 2.782, (False, False, False, False)
84.425, 87.35, -47.0875, 3.383301426, 18.3305988312, 2017-08-21 09:59:51, 0.0, 0.0, 0.0, 0.0, True, 0, 9, 7, 0.00817400030792, 0.00195199996233, 0.994910001755, -2.80555009842, 5.70574951172, 8.66969013214, 0.518280029297, 0.20272000134, -0.234080001712, -0.470720231533, 0.112413391471, 82.9575500488, 119.953, True, DATA006.CSV, 7.123, (False, False, False, False)
84.2, 87.125, -50.8, 3.297656487, 17.848783493, 2017-08-21 10:00:27, 0.0, 0.0, 0.0, 0.0, True, 0, 14, 6, -0.011711999774, 0.0111020002514, 1.07183098793, 1.39444994926, 8.68949985504, -8.73406028748, 0.167720004916, 0.135519996285, -0.219380006194, 0.626017868519, 0.593447089195, 65.3813247681, 157.207, True, DATA006.CSV, 3.12, (False, False, False, False)
83.8625, 86.9, -51.925, 3.203019192, 18.3181285858, 2017-08-21 10:01:03, 0.0, 0.0, 0.0, 0.0, True, 0, 19, 7, 0.0081129996106, -0.0142129994929, 1.01699197292, 1.35069990158, 7.59574985504, 3.99719023705, 0.541940033436, 0.139579996467, -0.23072001338, -0.457019656897, -0.800686597824, 89.8770141602, 193.213, True, DATA006.CSV, 0.433, (False, False, False, False)
83.75, 86.7875, -55.1875, 3.112660518, 18.1567802429, 2017-08-21 10:01:32, 0.0, 0.0, 0.0, 0.0, True, 0, 20, 7, 0.00487999990582, -0.00341599993408, 1.01503992081, 1.38569998741, -8.46924972534, 0.479689985514, 0.289660006762, 0.291339993477, -0.245560005307, -0.275456815958, -0.192821621895, 59.1543235779, 221.564, True, DATA006.CSV, 5.223, (False, False, False, False)
83.4125, 86.5625, -58.675, 3.0071816325, 17.9905834198, 2017-08-21 10:02:07, 0.0, 0.0, 0.0, 0.0, True, 0, 25, 7, 0.0142129994929, 0.0013419999741, 1.03901302814, -4.74804973602, -4.95174980164, -21.5528106689, 0.526120007038, 0.0852600038052, -0.235200002789, -0.783718168736, 0.074003778398, 95.1149902344, 256.989, True, DATA006.CSV, 2.971, (False, False, False, False)
83.1875, 86.225, -60.25, 2.9213191365, 17.8269462585, 2017-08-21 10:02:42, 0.0, 0.0, 0.0, 0.0, True, 0, 27, 6, 0.0103089995682, 0.00286699994467, 0.974047958851, -1.74680006504, 1.01574993134, -24.0815601349, 0.153999999166, 0.105420000851, -0.223719999194, -0.606374204159, 0.168643146753, 69.9265823364, 292.507, True, DATA006.CSV, 0.625, (False, False, False, False)
83.075, 86.0, -59.0125, 2.881614984, 17.983247757, 2017-08-21 10:03:11, 0.0, 0.0, 0.0, 0.0, True, 0, 30, 6, 0.0111020002514, 0.00439199991524, 1.03590202332, 1.20194995403, 0.368249893188, 26.397190094, 0.177799999714, 0.190120011568, -0.232260003686, -0.614023029804, 0.242920204997, 57.4021377563, 320.826, True, DATA006.CSV, 5.457, (False, False, False, False)
82.85, 85.775, -60.1375, 2.8271169555, 17.3436336517, 2017-08-21 10:03:47, 0.0, 0.0, 0.0, 0.0, True, 0, 33, 6, 0.0104310000315, 0.00500199990347, 0.929090976715, 5.41945028305, -1.99425005913, 0.777189970016, 0.270200014114, 0.0130200004205, -0.219940006733, -0.643229186535, 0.308463543653, 101.561248779, 356.371, True, DATA006.CSV, 3.075, (False, False, False, False)
82.5125, 85.4375, -63.625, 2.7499567395, 17.8124198914, 2017-08-21 10:04:22, 0.0, 0.0, 0.0, 0.0, True, 0, 37, 6, 0.0226919986308, -0.0127489995211, 0.950074970722, -3.8030500412, -4.50549983978, 1.6959400177, 0.211820006371, 0.199780002236, -0.23982000351, -1.36809360981, -0.768802464008, 60.9955177307, 392.459, True, DATA006.CSV, 0.006, (False, False, False, False)
82.2875, 85.2125, -67.7875, 2.672615226, 17.4904308319, 2017-08-21 10:04:52, 0.0, 0.0, 0.0, 0.0, True, 0, 41, 6, 0.00878399983048, 0.005795000121, 1.08543395996, 6.56570005417, 6.80824947357, -14.0190601349, 0.105700001121, 0.17094001174, -0.19376000762, -0.463655948639, 0.305892258883, 46.0503845215, 421.814, True, DATA006.CSV, 3.838, (False, False, False, False)
81.95, 84.9875, -66.8875, 2.590161123, 17.1662883759, 2017-08-21 10:05:28, 0.0, 0.0, 0.0, 0.0, True, 0, 45, 6, 0.00658799987286, 0.0186049994081, 1.10940694809, 23.269449234, -5.89675045013, -15.4803104401, 0.196840003133, 0.0403200015426, -0.206360012293, -0.340188086033, 0.960772752762, 92.7438583374, 458.49, True, DATA006.CSV, 0.282, (False, False, False, False)
81.725, 84.7625, -65.65, 2.5186211295, 17.1616306305, 2017-08-21 10:05:57, 0.0, 0.0, 0.0, 0.0, True, 0, 48, 6, 0.0140909999609, -0.00329399993643, 0.955747961998, -3.44430017471, 2.99325013161, -28.9115600586, 0.567420005798, 0.0792400017381, -0.20258000493, -0.844669938087, -0.197469994426, 96.3700714111, 486.913, True, DATA006.CSV, 5.184, (False, False, False, False)
81.3875, 84.425, -66.4375, 2.443310148, 17.3130512238, 2017-08-21 10:06:35, 0.0, 0.0, 0.0, 0.0, True, 0, 50, 6, 0.00799100007862, 0.00420899968594, 1.03858602047, -7.4780497551, -5.38924980164, -48.7740592957, 0.341740012169, 0.0523600019515, -0.235480010509, -0.440827935934, 0.232197016478, 95.6091156006, 524.55, True, DATA006.CSV, 0.44, (False, False, False, False)
80.825, 83.8625, -64.3, 2.3495068215, 16.9847240448, 2017-08-21 10:07:40, 0.0, 0.0, 0.0, 0.0, True, 0, 55, 5, 0.0129929995164, 0.00664899963886, 1.00393795967, 3.54694986343, -0.0255000591278, 10.6821899414, 0.259000003338, 0.316540002823, -0.218260005116, -0.741466164589, 0.379459738731, 53.610786438, 589.318, True, DATA006.CSV, 2.28, (False, False, False, False)
80.6, 83.525, -62.3875, 2.286233994, 17.296628952, 2017-08-21 10:08:17, 0.0, 0.0, 0.0, 0.0, True, 0, 3, 6, 0.00536799989641, 0.00207399995998, 1.01168501377, 2.61069989204, 1.39199995995, -6.59031009674, 0.6035400033, 0.256760001183, -0.185500010848, -0.304007828236, 0.117458753288, 81.2739562988, 26.501, True, DATA007.CSV, 1.249, (False, False, False, False)
80.2625, 83.3, -61.0375, 2.2460947275, 17.1314105988, 2017-08-21 10:08:45, 0.0, 0.0, 0.0, 0.0, True, 0, 6, 6, 0.0126879997551, 0.00164699996822, 1.01546692848, 1.65694999695, -1.60925006866, -24.9128112793, 0.357000023127, 0.332780003548, -0.232260003686, -0.715857923031, 0.092928737402, 61.3309783936, 54.897, True, DATA007.CSV, 6.129, (False, False, False, False)
79.925, 82.9625, -60.475, 2.2021482135, 16.9663276672, 2017-08-21 10:09:21, 0.0, 0.0, 0.0, 0.0, True, 0, 9, 6, 0.0166529994458, 0.00445299968123, 1.05981397629, -0.749300003052, -3.8317501545, 3.15719008446, 0.302540004253, -0.030660001561, -0.214760005474, -0.900214314461, 0.240737125278, 110.106704712, 90.296, True, DATA007.CSV, 3.707, (False, False, False, False)
79.5875, 82.625, -61.825, 2.146924995, 16.6433200836, 2017-08-21 10:09:57, 0.0, 0.0, 0.0, 0.0, True, 0, 13, 5, 0.00975999981165, 0.00957699958235, 1.05121302605, 0.528200030327, 3.15949988365, -13.2490606308, 0.330960005522, 0.376180022955, -0.202160000801, -0.531925976276, 0.521974563599, 55.6610412598, 126.897, True, DATA007.CSV, 0.457, (False, False, False, False)
79.3625, 82.4, -61.9375, 2.0985910815, 16.6388168335, 2017-08-21 10:10:26, 0.0, 0.0, 0.0, 0.0, True, 0, 16, 6, 0.00719799986109, 0.00420899968594, 1.03090000153, -9.39429950714, 4.28824996948, 2.1334400177, 0.534660041332, 0.10612000525, -0.225540012121, -0.400043487549, 0.23392817378, 93.09375, 156.103, True, DATA007.CSV, 4.214, (False, False, False, False)
79.025, 82.0625, -61.15, 2.0671178355, 16.790019989, 2017-08-21 10:10:56, 0.0, 0.0, 0.0, 0.0, True, 0, 18, 6, 0.00664899963886, 0.00158599996939, 0.973864972591, 1.68320000172, -4.24300003052, -33.9253120422, 0.439600020647, 0.287699997425, -0.233800008893, -0.391176581383, 0.0933096632361, 71.1169128418, 186.102, True, DATA007.CSV, 7.304, (False, False, False, False)
78.6875, 81.725, -61.7125, 2.029951848, 17.0989875793, 2017-08-21 10:11:34, 0.0, 0.0, 0.0, 0.0, True, 0, 25, 6, 0.00731999985874, 0.00243999995291, 1.05908203125, -3.20805001259, -2.57175016403, -25.009059906, 0.516600012779, 0.00742000015453, -0.199080005288, -0.396000742912, 0.132002472878, 103.497108459, 223.742, True, DATA007.CSV, 3.081, (False, False, False, False)
78.4625, 81.3875, -62.1625, 1.9922782275, 16.6208267212, 2017-08-21 10:12:09, 0.0, 0.0, 0.0, 0.0, True, 0, 30, 6, 0.011590000242, 0.00768599985167, 1.0129660368, 9.48820018768, 1.14699983597, 19.9396896362, 0.315420001745, 0.301699995995, -0.226380005479, -0.655510544777, 0.434730142355, 60.5936050415, 259.145, True, DATA007.CSV, 0.779, (False, False, False, False)
77.7875, 80.825, -63.175, 1.91957793, 16.6073589325, 2017-08-21 10:13:12, 0.0, 0.0, 0.0, 0.0, True, 0, 35, 6, 0.0101870000362, 0.00158599996939, 0.98197799921, 1.41194999218, 3.20324969292, 8.05718994141, 0.306180000305, 0.354200005531, -0.197540000081, -0.594361960888, 0.0925387516618, 55.1610107422, 323.009, True, DATA007.CSV, 3.273, (False, False, False, False)
77.45, 80.4875, -63.7375, 1.8791485875, 16.6006336212, 2017-08-21 10:13:48, 0.0, 0.0, 0.0, 0.0, True, 0, 39, 5, 0.0136639997363, 0.00451399991289, 0.989358961582, 0.685699999332, -0.463000059128, -3.96530985832, 0.298480004072, 0.275800019503, -0.232400000095, -0.791251301765, 0.261413037777, 61.5815963745, 358.453, True, DATA007.CSV, 1.007, (False, False, False, False)
77.225, 80.15, -63.9625, 1.8524615955, 16.4385356903, 2017-08-21 10:14:17, 0.0, 0.0, 0.0, 0.0, True, 0, 39, 5, 0.00939399935305, 0.00597799988464, 1.01418602467, -5.15054988861, 0.368249893188, 1.45094001293, 0.486640006304, 0.293440014124, -0.218260005116, -0.530683398247, 0.337719291449, 73.2303619385, 386.728, True, DATA007.CSV, 5.913, (False, False, False, False)
76.8875, 79.8125, -64.75, 1.810654392, 16.1167869568, 2017-08-21 10:14:52, 0.0, 0.0, 0.0, 0.0, True, 0, 43, 6, 0.00921100005507, 0.000853999983519, 1.00589001179, -0.0230500027537, -0.821750044823, -37.4865608215, 0.201180011034, 0.0432600006461, -0.200060009956, -0.524646282196, 0.0486440658569, 92.1844024658, 422.471, True, DATA007.CSV, 3.258, (False, False, False, False)
76.55, 79.475, -66.325, 1.770333828, 16.2677536011, 2017-08-21 10:15:28, 0.0, 0.0, 0.0, 0.0, True, 0, 46, 4, 0.0107969995588, 0.0101260002702, 0.980208992958, 0.151949986815, -2.60675001144, 15.1971893311, 0.520940005779, 0.185920000076, -0.219800010324, -0.631053686142, 0.591870129108, 84.6788482666, 458.821, True, DATA007.CSV, 0.0, (False, False, False, False)
76.2125, 79.25, -66.6625, 1.7454960705, 16.4185943604, 2017-08-21 10:15:57, 0.0, 0.0, 0.0, 0.0, True, 0, 48, 6, 0.00664899963886, 0.00195199996233, 1.06207096577, -0.924300014973, -0.524250030518, -52.8428115845, 0.408100008965, 0.310380011797, -0.220500007272, -0.358689755201, 0.105304852128, 67.0652313232, 487.836, True, DATA007.CSV, 4.272, (False, False, False, False)
75.875, 78.9125, -67.3375, 1.7121373305, 16.4119567871, 2017-08-21 10:16:32, 0.0, 0.0, 0.0, 0.0, True, 0, 51, 6, 0.0137249995023, 0.00622199987993, 1.02882599831, 1.06194996834, -7.08675003052, -6.67780971527, 0.221620008349, 0.272579997778, -0.212099999189, -0.76429194212, 0.346501708031, 53.4326858521, 523.184, True, DATA007.CSV, 2.079, (False, False, False, False)
75.65, 78.575, -67.7875, 1.688894991, 16.407535553, 2017-08-21 10:17:02, 0.0, 0.0, 0.0, 0.0, True, 0, 55, 6, 0.0120780002326, 0.00628300011158, 0.985027968884, -1.13429999352, 1.68950009346, 15.7221899033, 0.246820002794, 0.259979993105, -0.22120000422, -0.702487289906, 0.365456104279, 57.8325386047, 551.899, True, DATA007.CSV, 6.448, (False, False, False, False)
75.3125, 78.2375, -68.2375, 1.657639302, 16.2436599731, 2017-08-21 10:17:37, 0.0, 0.0, 0.0, 0.0, True, 0, 58, 5, 0.0128709999844, 0.00451399991289, 0.994910001755, 1.07945001125, 1.98699975014, -7.17655992508, 0.169540002942, 0.165760010481, -0.19376000762, -0.741177797318, 0.259954541922, 59.9658966064, 587.906, True, DATA007.CSV, 3.699, (False, False, False, False)
74.975, 77.7875, -68.0125, 1.6244618595, 16.394285202, 2017-08-21 10:18:16, 0.0, 0.0, 0.0, 0.0, True, 0, 2, 5, 0.011590000242, 0.00652700010687, 1.02705693245, 2.31319999695, -2.27425003052, 9.03718948364, 0.296800017357, -0.0667800009251, -0.169400006533, -0.646523535252, 0.364112734795, 117.00038147, 26.439, True, DATA008.CSV, 1.421, (False, False, False, False)
74.6375, 77.5625, -67.3375, 1.601799672, 16.0734214783, 2017-08-21 10:18:45, 0.0, 0.0, 0.0, 0.0, True, 0, 7, 6, 0.0144569994882, 0.0082959998399, 1.02046895027, 8.28945064545, -2.15175008774, -15.6553106308, 0.329420000315, -0.0154000008479, -0.204120010138, -0.811629056931, 0.465781211853, 106.996551514, 54.65, True, DATA008.CSV, 6.362, (False, False, False, False)
74.3, 77.225, -67.1125, 1.5643436085, 15.9098787308, 2017-08-21 10:19:20, 0.0, 0.0, 0.0, 0.0, True, 0, 10, 6, 0.017689999193, 0.00256199995056, 1.04950499535, -5.9642996788, -3.94550013542, -6.31905984879, 0.323819994926, 0.323960006237, -0.219940006733, -0.96565836668, 0.139867350459, 59.3076095581, 90.184, True, DATA008.CSV, 4.011, (False, False, False, False)
73.9625, 76.8875, -68.4625, 1.531963875, 16.2174549103, 2017-08-21 10:19:56, 0.0, 0.0, 0.0, 0.0, True, 0, 12, 6, 0.00957699958235, 0.00335499993525, 1.03864693642, 7.58070039749, 6.00325012207, 24.6384391785, 0.485660016537, 0.274680018425, -0.213640004396, -0.528286635876, 0.18507412076, 74.8283233643, 125.522, True, DATA008.CSV, 1.829, (False, False, False, False)
73.7375, 76.55, -68.0125, 1.5103894725, 15.8991861343, 2017-08-21 10:20:23, 0.0, 0.0, 0.0, 0.0, True, 0, 16, 5, 0.00707599986345, 0.0026839999482, 1.02327501774, -3.00680017471, 1.15575003624, 26.3096904755, 0.264600008726, 0.00167999998666, -0.215039998293, -0.396195650101, 0.150283649564, 103.956214905, 153.861, True, DATA008.CSV, 6.656, (False, False, False, False)
73.4, 76.325, -67.675, 1.4840650755, 15.7358865738, 2017-08-21 10:20:59, 0.0, 0.0, 0.0, 0.0, True, 0, 17, 6, 0.00896700005978, 0.00530700013041, 1.03553593159, -6.97055006027, 0.954499959946, -13.8965606689, 0.374359995127, -0.0431200005114, -0.206920012832, -0.496121555567, 0.293631583452, 110.890556335, 189.256, True, DATA008.CSV, 4.408, (False, False, False, False)
73.0625, 75.875, -67.3375, 1.455963963, 15.7295475006, 2017-08-21 10:21:35, 0.0, 0.0, 0.0, 0.0, True, 0, 23, 5, 0.0120169995353, 0.00457500014454, 1.0061340332, -3.01555013657, -2.07300019264, 0.995939970016, 0.415940016508, 0.28993999958, -0.229040011764, -0.68428593874, 0.26052826643, 69.4407424927, 224.66, True, DATA008.CSV, 2.158, (False, False, False, False)
72.725, 75.5375, -67.3375, 1.431089946, 15.5664453506, 2017-08-21 10:22:10, 0.0, 0.0, 0.0, 0.0, True, 0, 25, 6, 0.0120780002326, 0.00243999995291, 0.996617972851, -0.443050026894, 0.971999883652, 11.0584392548, 0.186900004745, 0.24010001123, -0.205800011754, -0.694330692291, 0.140275835991, 52.2181015015, 260.025, True, DATA008.CSV, 0.0, (False, False, False, False)
72.5, 75.3125, -67.225, 1.4116185945, 15.4055461884, 2017-08-21 10:22:37, 0.0, 0.0, 0.0, 0.0, True, 0, 28, 5, 0.0132369995117, 0.00365999992937, 1.02888703346, 0.248199984431, 1.05949997902, -5.42655992508, 0.399140000343, 0.312200009823, -0.224420011044, -0.737085402012, 0.203814059496, 66.2881317139, 288.428, True, DATA008.CSV, 4.72, (False, False, False, False)
72.05, 74.975, -67.225, 1.38728847, 15.8671998978, 2017-08-21 10:23:13, 0.0, 0.0, 0.0, 0.0, True, 0, 33, 5, 0.0292799994349, 0.00396499969065, 1.00021696091, 2.04194998741, 2.31074976921, 1.59968996048, 0.462700009346, 0.0201600007713, -0.222320005298, -1.67676436901, 0.227127254009, 101.825172424, 324.029, True, DATA008.CSV, 2.224, (False, False, False, False)
71.825, 74.6375, -65.9875, 1.365097656, 15.7063474655, 2017-08-21 10:23:42, 0.0, 0.0, 0.0, 0.0, True, 0, 34, 6, 0.0125049995258, 0.0108579993248, 1.00052201748, -0.976800024509, 0.648249864578, -4.62156009674, 0.413280010223, -0.050680000335, -0.207060009241, -0.716030478477, 0.621768474579, 111.311195374, 353.228, True, DATA008.CSV, 6.121, (False, False, False, False)
71.4875, 74.3, -65.3125, 1.3408400505, 15.7000303268, 2017-08-21 10:24:20, 0.0, 0.0, 0.0, 0.0, True, 0, 39, 6, 0.00969900004566, 0.00231799995527, 1.04279494286, 3.99320006371, 0.158249855042, 13.3771896362, 0.285320013762, 0.312900006771, -0.230160012841, -0.53288936615, 0.127360984683, 56.6803321838, 389.985, True, DATA008.CSV, 2.552, (False, False, False, False)
71.15, 73.9625, -65.3125, 1.3195919835, 15.8501939774, 2017-08-21 10:24:56, 0.0, 0.0, 0.0, 0.0, True, 0, 42, 6, 0.0128709999844, 0.00231799995527, 1.00973296165, -0.0843000039458, -3.58675003052, -8.69906044006, 0.488320022821, -0.0109200002626, -0.211120009422, -0.730304002762, 0.131531193852, 105.601051331, 425.949, True, DATA008.CSV, 0.0, (False, False, False, False)
70.925, 73.625, -65.875, 1.3010996385, 15.5330858231, 2017-08-21 10:25:24, 0.0, 0.0, 0.0, 0.0, True, 0, 43, 5, 0.0177509989589, 0.00744199985638, 1.0401109457, -3.22555017471, 0.648249864578, -4.84031009674, 0.219940006733, 0.109900005162, -0.213780000806, -0.977715492249, 0.409944623709, 77.76953125, 454.37, True, DATA008.CSV, 4.735, (False, False, False, False)
70.475, 73.2875, -66.6625, 1.2739050135, 15.6811151505, 2017-08-21 10:26:00, 0.0, 0.0, 0.0, 0.0, True, 0, 48, 6, 0.013419999741, 0.00762499962002, 1.02907001972, 5.90945005417, -2.98300004005, 12.020939827, 0.495880007744, 0.320460021496, -0.20272000134, -0.74712562561, 0.424531161785, 71.4476242065, 489.83, True, DATA008.CSV, 2.445, (False, False, False, False)
70.25, 72.95, -67.1125, 1.251895497, 15.3643102646, 2017-08-21 10:26:35, 0.0, 0.0, 0.0, 0.0, True, 0, 49, 6, 0.0150669999421, 0.00701500009745, 1.04401493073, 0.274450004101, -0.305500030518, 13.9109401703, 0.199080005288, 0.154559999704, -0.214620009065, -0.826804280281, 0.384979009628, 66.4952545166, 525.189, True, DATA008.CSV, 0.247, (False, False, False, False)
69.9125, 72.725, -67.225, 1.233330633, 15.514383316, 2017-08-21 10:27:02, 0.0, 0.0, 0.0, 0.0, True, 0, 52, 6, 0.0106750000268, 0.00738099962473, 0.998813986778, 2.26944994926, -4.12050008774, -6.94905996323, 0.450379997492, 0.315280020237, -0.212800011039, -0.612318634987, 0.423394560814, 69.3267745972, 553.491, True, DATA008.CSV, 5.121, (False, False, False, False)
69.575, 72.275, -66.775, 1.20671616, 15.3519821167, 2017-08-21 10:27:38, 0.0, 0.0, 0.0, 0.0, True, 0, 56, 6, 0.0126269999892, 0.0056119998917, 1.02083492279, -2.88429999352, -3.54300022125, -0.0365599989891, 0.488320022821, 0.0189000014216, -0.206220000982, -0.708661079407, 0.314978092909, 102.103515625, 588.878, True, DATA008.CSV, 2.902, (False, False, False, False)
69.2375, 71.9375, -66.1, 1.1832562635, 15.1897087097, 2017-08-21 10:28:15, 60012.797196, 101886.09494, 44.13458, -113.164983333, True, 14, 1, 6, 0.011590000242, 0.00384299992584, 0.965080976486, -0.058050006628, -0.646750092506, 3.62094020844, 0.198940008879, 0.297360002995, -0.196700006723, -0.688046872616, 0.228153407574, 48.1033401489, 26.46, True, DATA009.CSV, 1.225, (False, False, False, False)
69.0125, 71.6, -65.3125, 1.1664318555, 15.3417243958, 2017-08-21 10:28:45, 60364.17516, 102173.608398, 44.133913333, -113.16375, True, 26, 4, 6, 0.0137859992683, 0.00725900009274, 0.975268006325, -0.373050004244, 1.82074999809, -7.02781009674, 0.300860017538, -0.0422799997032, -0.19824001193, -0.809833943844, 0.426449328661, 112.319412231, 56.244, True, DATA009.CSV, 4.758, (False, False, False, False)
68.675, 71.2625, -64.975, 1.142826921, 15.6475992203, 2017-08-21 10:29:20, 60792.32478, 730.083631158, 44.134191667, -113.163115, True, 39, 8, 6, 0.0118950000033, 0.00658799987286, 0.997227966785, 3.62569999695, -2.26550006866, -10.1165599823, 0.273279994726, 0.372400015593, -0.187739998102, -0.683380424976, 0.378508329391, 50.5925064087, 91.596, True, DATA009.CSV, 2.558, (False, False, False, False)
68.3375, 71.0375, -65.65, 1.125929994, 15.4853792191, 2017-08-21 10:29:49, 61172.90222, 760.27703104, 44.134796667, -113.161681667, True, 52, 12, 6, 0.0139689994976, 0.00573399988934, 1.06219303608, -6.76929998398, -3.72675013542, -0.150310009718, 0.185500010848, 0.183400005102, -0.201740011573, -0.753447651863, 0.30929479003, 59.6461601257, 120.524, True, DATA009.CSV, 6.716, (False, False, False, False)
68.0, 70.7, -66.2125, 1.1051533005, 15.4791793823, 2017-08-21 10:30:26, 61580.054464, 717.346472573, 44.135263333, -113.15968, True, 68, 17, 6, 0.0129929995164, 0.00670999987051, 1.01668703556, 1.62194991112, 0.621999979019, -3.87781000137, 0.537320017815, 0.158200010657, -0.209020003676, -0.732169508934, 0.378139048815, 87.9142913818, 157.015, True, DATA009.CSV, 3.307, (False, False, False, False)
67.6625, 70.25, -66.4375, 1.079735391, 15.3171606064, 2017-08-21 10:31:02, 61927.823504, 621.269562352, 44.135083333, -113.158176667, True, 82, 21, 6, 0.0135420002043, 0.00969900004566, 1.05133497715, 0.431950032711, -2.38800001144, 12.2484397888, 0.372539997101, -0.0259000007063, -0.214060008526, -0.737941324711, 0.528562188148, 108.296951294, 193.209, True, DATA009.CSV, 0.46, (False, False, False, False)
67.4375, 70.025, -66.775, 1.064361363, 14.8457269669, 2017-08-21 10:31:30, 62286.7474, 670.145507979, 44.134975, -113.157083333, True, 96, 24, 6, 0.0126269999892, 0.00756399985403, 1.01406395435, -1.92180001736, 4.48075008392, -4.92780971527, 0.527379989624, 0.266140013933, -0.20286001265, -0.713383257389, 0.427366763353, 77.5423965454, 221.521, True, DATA009.CSV, 5.305, (False, False, False, False)
67.1, 69.6875, -66.55, 1.0466304675, 14.8397874832, 2017-08-21 10:32:06, 62663.715916, 639.920334661, 44.134728333, -113.156678333, True, 110, 32, 6, 0.00951599981636, 0.00622199987993, 1.03327894211, -2.18429994583, 1.49699997902, -1.34906005859, 0.225680008531, 0.027160000056, -0.200760006905, -0.527641952038, 0.34500849247, 97.4576034546, 257.933, True, DATA009.CSV, 1.82, (False, False, False, False)
66.7625, 69.35, -67.0, 1.0300236165, 14.8338546753, 2017-08-21 10:32:36, 63029.85766, 670.659233284, 44.13487, -113.155415, True, 122, 35, 6, 0.0112239997834, 0.0056119998917, 1.01991999149, 1.03569996357, 1.17324995995, 20.2546901703, 0.280420005322, 0.30408000946, -0.204400002956, -0.630492627621, 0.315260648727, 57.0019836426, 287.794, True, DATA009.CSV, 5.365, (False, False, False, False)
66.425, 69.0125, -65.65, 1.012727835, 15.2947130203, 2017-08-21 10:33:13, 63430.776308, 700.817574441, 44.134656667, -113.153731667, True, 137, 41, 6, 0.0132979992777, 0.0069539998658, 0.995397984982, 1.99819993973, 0.420749902725, -18.0003108978, 0.487760007381, 0.230860009789, -0.223580002785, -0.765377640724, 0.400270372629, 78.9914932251, 324.38, True, DATA009.CSV, 1.748, (False, False, False, False)
66.2, 68.7875, -64.525, 0.999456858, 14.8239746094, 2017-08-21 10:33:42, 63751.970544, 674.84975996, 44.13406, -113.151955, True, 148, 46, 5, 0.00872300006449, 0.00445299968123, 0.994116961956, 0.283200025558, 2.22325015068, 0.155939996243, 0.208880007267, 0.319759994745, -0.194180011749, -0.5027307868, 0.256646245718, 47.4741744995, 353.262, True, DATA009.CSV, 6.181, (False, False, False, False)
65.8625, 68.45, -64.1875, 0.979151538, 14.9735441208, 2017-08-21 10:34:17, 64131.563732, 655.086729658, 44.133458333, -113.149131667, True, 165, 50, 7, 0.0105529995635, 0.00683199986815, 1.0218719244, -0.355549991131, -0.393000125885, 7.83843994141, 0.555800020695, 0.0165200009942, -0.182840004563, -0.591666400433, 0.383060634136, 102.617492676, 388.754, True, DATA009.CSV, 3.827, (False, False, False, False)
65.525, 68.1125, -63.85, 0.963124839, 14.65670681, 2017-08-21 10:34:52, 64375.00206, 525.450875831, 44.132431667, -113.147055, True, 180, 55, 6, 0.0148839997128, 0.00835699960589, 0.991737961769, 0.974450051785, -1.07550013065, -11.0615606308, 0.574420034885, 0.0523600019515, -0.188440009952, -0.859799742699, 0.482798337936, 99.1117172241, 424.474, True, DATA009.CSV, 1.269, (False, False, False, False)
65.3, 67.775, -63.625, 0.9514855395, 14.9635829926, 2017-08-21 10:35:22, 64831.694988, 659.69913435, 44.131588333, -113.144993333, True, 194, 58, 7, 0.0136029999703, 0.0101870000362, 0.991432964802, 3.54694986343, 0.490749835968, 14.1909399033, 0.514079988003, -0.0358400009573, -0.180040001869, -0.786038398743, 0.588694930077, 108.308021545, 452.834, True, DATA009.CSV, 6.06, (False, False, False, False)
64.9625, 67.4375, -63.7375, 0.934697391, 14.9576120377, 2017-08-21 10:35:57, 65219.490276, 732.082119274, 44.13057, -113.142928333, True, 208, 62, 7, 0.0139079997316, 0.00591699965298, 1.01522302628, 4.15945005417, -1.6617500782, 4.25969028473, 0.48902001977, -0.070140004158, -0.186340004206, -0.784858345985, 0.333931803703, 112.48223877, 488.479, True, DATA009.CSV, 3.566, (False, False, False, False)
64.625, 67.2125, -63.5125, 0.919758477, 15.2621793747, 2017-08-21 10:36:29, 65577.758004, 3538.24891539, 44.12992, -113.142306667, True, 223, 68, 7, 0.0121389999986, 0.00640499964356, 1.02882599831, 1.16694998741, 0.490749835968, -10.7378101349, 0.518559992313, 0.305480003357, -0.188160002232, -0.675981938839, 0.356692641973, 73.8179626465, 524.075, True, DATA009.CSV, 1.147, (False, False, False, False)
64.4, 66.875, -63.4, 0.907067652, 14.9476718903, 2017-08-21 10:37:01, 65945.212084, 3590.15760498, 44.12955, -113.142601667, True, 238, 72, 7, 0.0132979992777, 0.00683199986815, 1.02772796154, 2.41820001602, -0.0255000591278, 6.7709403038, 0.160020008683, 0.165340006351, -0.184940010309, -0.741305053234, 0.380878001451, 58.3832321167, 552.483, True, DATA009.CSV, 5.875, (False, False, False, False)
64.0625, 66.5375, -63.2875, 0.8874512625, 14.7865552902, 2017-08-21 10:37:37, 66378.939132, 719.894871104, 44.129486667, -113.142175, True, 254, 77, 7, 0.0131149999797, -0.00128099997528, 1.02492201328, -3.2868001461, -1.85425007343, -2.64405989647, 0.410620003939, -0.0243600010872, -0.202020004392, -0.73312163353, -0.0716111510992, 107.715080261, 588.067, True, DATA009.CSV, 3.44, (False, False, False, False)
63.725, 66.2, -63.625, 0.8716421205, 14.935760498, 2017-08-21 10:38:15, 66830.7108, 112593.694461, 44.129771667, -113.14061, True, 9, 4, 7, 0.0112849995494, 0.00725900009274, 1.01973700523, 2.39194989204, 0.411999940872, 8.66969013214, 0.489160001278, -0.0392000004649, -0.178920000792, -0.634026229382, 0.407853215933, 108.901733398, 26.457, True, DATA010.CSV, 1.403, (False, False, False, False)
63.3875, 65.8625, -63.0625, 0.860147859, 15.0848531723, 2017-08-21 10:38:43, 67133.860416, 112847.170074, 44.129615, -113.140323333, True, 21, 6, 7, 0.00841799937189, 0.011590000242, 1.03065598011, -2.56054997444, -1.70550012589, 12.7209396362, 0.330819994211, -0.0330400019884, -0.186060011387, -0.467929720879, 0.644279062748, 110.023384094, 54.896, True, DATA010.CSV, 6.109, (False, False, False, False)
63.1625, 65.525, -61.9375, 0.845426502, 14.6158571243, 2017-08-21 10:39:19, 67547.57434, 746.849117017, 44.12986, -113.139411667, True, 40, 11, 6, 0.0129319997504, 0.00841799937189, 0.974231004715, -1.31805002689, 4.83949947357, -6.78280973434, 0.495180010796, 0.00182000000495, -0.187600001693, -0.760474443436, 0.495061039925, 104.109405518, 90.381, True, DATA010.CSV, 3.782, (False, False, False, False)
62.825, 65.3, -61.375, 0.829254765, 14.6100406647, 2017-08-21 10:39:54, 67948.821072, 687.656848264, 44.130173333, -113.137941667, True, 54, 15, 7, 0.0111630000174, 0.00890599936247, 0.999606966972, 0.589450001717, 4.22700023651, 5.4584403038, 0.444220006466, -0.0434000007808, -0.186200007796, -0.639792263508, 0.510463297367, 109.900047302, 125.862, True, DATA010.CSV, 1.45, (False, False, False, False)
62.6, 65.075, -60.25, 0.8166001995, 15.070848465, 2017-08-21 10:40:19, 68202.430004, 610.927191579, 44.130058333, -113.136333333, True, 65, 19, 7, 0.015188999474, 0.00707599986345, 0.982343971729, 4.24695014954, 1.34824991226, -0.045309998095, 0.229040011764, 0.0953400060534, -0.215460002422, -0.88581353426, 0.412704646587, 81.7200241089, 154.216, True, DATA010.CSV, 6.27, (False, False, False, False)
62.2625, 64.7375, -58.7875, 0.8020238805, 14.755188942, 2017-08-21 10:40:59, 68629.267288, 645.646217597, 44.12914, -113.135036667, True, 82, 24, 7, 0.0135420002043, 0.00738099962473, 0.98301500082, 4.08945035934, 3.3694999218, -1.6465600729, 0.544319987297, 0.200340002775, -0.213780000806, -0.789233624935, 0.430199086666, 84.1135787964, 189.916, True, DATA010.CSV, 3.709, (False, False, False, False)
61.925, 64.4, -58.0, 0.7883903085, 14.5945510864, 2017-08-21 10:41:34, 69100.395912, 742.459032512, 44.126981667, -113.134518333, True, 100, 28, 6, 0.0104919997975, 0.0106140002608, 0.996068954468, -3.65429997444, 1.84699988365, 2.22969007492, 0.500779986382, 0.0014000000665, -0.195440009236, -0.603463172913, 0.610514342785, 104.159820557, 226.536, True, DATA010.CSV, 0.258, (False, False, False, False)
61.7, 64.0625, -57.4375, 0.777693756, 14.9001426697, 2017-08-21 10:42:03, 69400.920856, 679.042680204, 44.125031667, -113.135443333, True, 111, 32, 7, 0.0145180001855, 0.00835699960589, 1.00680494308, -1.04680001736, 4.10449981689, 0.724690020084, 0.44240000844, -0.0624400004745, -0.176260009408, -0.826112151146, 0.475573509932, 112.353614807, 254.868, True, DATA010.CSV, 5.1, (False, False, False, False)
61.3625, 63.8375, -56.9875, 0.764060184, 14.4302167892, 2017-08-21 10:42:39, 69836.288324, 679.378295922, 44.12295, -113.13767, True, 127, 36, 7, 0.0143349999562, 0.00646599987522, 1.03333997726, -2.15805006027, 0.464499950409, -0.509060025215, 0.471520006657, 0.0144200008363, -0.204400002956, -0.794768631458, 0.358516722918, 102.568321228, 290.788, True, DATA010.CSV, 2.221, (False, False, False, False)
61.25, 63.5, -56.0875, 0.7508979855, 14.7376050949, 2017-08-21 10:43:08, 70169.621668, 691.710706925, 44.121968333, -113.139621667, True, 137, 41, 6, 0.0140300001949, 0.00872300006449, 1.02223801613, 1.15819990635, -0.0867500305176, 1.10968995094, 0.546420037746, 0.125160008669, -0.185359999537, -0.786294400692, 0.488906621933, 91.4186859131, 320.084, True, DATA010.CSV, 6.114, (False, False, False, False)
60.9125, 63.275, -56.3125, 0.7373369325, 14.57716465, 2017-08-21 10:43:46, 70519.687296, 718.847614896, 44.12142, -113.141141667, True, 146, 44, 7, 0.0167749989778, 0.00719799986109, 1.03108298779, 0.160700008273, 5.0670003891, -1.63780999184, 0.53536003828, -0.00350000010803, -0.176400005817, -0.932057261467, 0.399975836277, 104.694564819, 356.756, True, DATA010.CSV, 2.682, (False, False, False, False)
60.575, 62.9375, -55.6375, 0.7258064115, 14.8804273605, 2017-08-21 10:44:20, 71007.876288, 703.537042654, 44.121303333, -113.143785, True, 157, 48, 7, 0.0161649994552, 0.00719799986109, 1.02742302418, 5.65570020676, -3.77050018311, 4.84594011307, 0.351680010557, -0.0554400011897, -0.175559997559, -0.901368796825, 0.401400625706, 113.278564453, 392.185, True, DATA010.CSV, 0.407, (False, False, False, False)
60.35, 62.7125, -55.3, 0.7163789415, 14.5675230026, 2017-08-21 10:44:50, 71342.850052, 700.738070452, 44.121613333, -113.145576667, True, 167, 51, 6, 0.0127489995211, 0.00860099960119, 0.981855988503, 1.05320000648, -0.183000087738, -8.79531002045, 0.519680023193, 0.000980000011623, -0.177239999175, -0.743891894817, 0.501894712448, 104.21194458, 420.757, True, DATA010.CSV, 4.937, (False, False, False, False)
60.0125, 62.375, -54.5125, 0.703506819, 14.7161693573, 2017-08-21 10:45:24, 71772.968176, 714.304389, 44.122413333, -113.147048333, True, 183, 54, 7, 0.015188999474, 0.00707599986345, 1.03150999546, 2.60194993019, -0.0517501831055, 4.31219005585, 0.506380021572, 0.232820004225, -0.203840002418, -0.843600273132, 0.393034040928, 79.628288269, 456.283, True, DATA010.CSV, 2.639, (False, False, False, False)
59.7875, 62.0375, -54.9625, 0.690598437, 14.4035110474, 2017-08-21 10:46:01, 72140.75034, 676.631465948, 44.123506667, -113.14712, True, 199, 58, 8, 0.0150060001761, 0.00774700008333, 1.00820803642, -4.11805009842, -2.44924998283, -0.351559996605, 0.420139998198, -0.0168000012636, -0.1891400069, -0.852692723274, 0.440248072147, 106.609840393, 491.911, True, DATA010.CSV, 0.176, (False, False, False, False)
59.5625, 61.925, -54.9625, 0.681170967, 14.7083892822, 2017-08-21 10:46:28, 72472.11518, 661.700250697, 44.1244, -113.146196667, True, 208, 63, 8, 0.0138469999656, 0.00975999981165, 1.02827703953, -0.0493000075221, 0.656999826431, -6.10030984879, 0.440160006285, 0.309260010719, -0.189280003309, -0.77147591114, 0.543812572956, 69.2278060913, 520.488, True, DATA010.CSV, 4.775, (False, False, False, False)
59.3375, 61.5875, -55.075, 0.6681538065, 14.7045030594, 2017-08-21 10:47:04, 72934.71362, 699.18891598, 44.124998333, -113.145695, True, 223, 68, 8, 0.00951599981636, 0.00884499959648, 1.02913093567, 3.33695006371, -0.401750087738, -0.054059997201, 0.237020000815, 0.275519996881, -0.200479999185, -0.529758572578, 0.492423892021, 55.024230957, 555.995, True, DATA010.CSV, 2.438, (False, False, False, False)
59.0, 61.25, -53.8375, 0.65484657, 14.2359580994, 2017-08-21 10:47:40, 73377.298936, 763.010391331, 44.124578333, -113.145735, True, 239, 76, 8, 0.015188999474, 0.00805199984461, 0.998264968395, 2.62820005417, -2.3180000782, -7.25531005859, 0.272579997778, 0.0116200000048, -0.193060010672, -0.871682465076, 0.462137401104, 101.878974915, 591.562, True, DATA010.CSV, 0.035, (False, False, False, False)
58.775, 61.025, -53.1625, 0.643098492, 14.5405960083, 2017-08-21 10:48:15, 73769.359316, 63901.0735809, 44.123173333, -113.145518333, True, 11, 4, 8, 0.0164700001478, 0.0084790000692, 1.01186800003, -1.40555000305, -1.19800007343, -3.26530981064, 0.219940006733, 0.245980009437, -0.196979999542, -0.932478427887, 0.480101644993, 56.1210975647, 26.468, True, DATA011.CSV, 1.387, (False, False, False, False)
58.55, 60.8, -52.375, 0.634686288, 14.3825969696, 2017-08-21 10:48:43, 74087.272712, 64168.6184906, 44.121685, -113.145186667, True, 21, 10, 8, 0.0150060001761, 0.01177299954, 1.00229096413, 0.624450027943, -1.63550007343, -4.75281000137, 0.291060000658, 0.0205800011754, -0.210840001702, -0.857691943645, 0.672970414162, 100.275512695, 54.886, True, DATA011.CSV, 6.129, (False, False, False, False)
58.325, 60.575, -50.8, 0.624098514, 14.6870393753, 2017-08-21 10:49:18, 74564.306848, 720.622421777, 44.119711667, -113.146198333, True, 36, 15, 8, 0.0104310000315, 0.0103699993342, 0.995458960533, 1.60444998741, 2.89700007439, -2.0228099823, 0.483280003071, 0.27636000514, -0.195720002055, -0.600324034691, 0.596845984459, 74.5572433472, 90.269, True, DATA011.CSV, 3.929, (False, False, False, False)
57.9875, 60.2375, -50.0125, 0.613728297, 14.3731117249, 2017-08-21 10:49:55, 74960.960404, 729.196415448, 44.119203333, -113.14872, True, 46, 21, 8, 0.0131149999797, 0.0115289995447, 0.962701976299, 3.40694999695, -0.393000125885, 6.67469024658, 0.423640012741, -0.0631400048733, -0.176540002227, -0.780442714691, 0.68612241745, 112.797050476, 126.573, True, DATA011.CSV, 0.761, (False, False, False, False)
57.875, 60.0125, -49.1125, 0.604663422, 14.6792907715, 2017-08-21 10:50:22, 75294.293748, 680.289681971, 44.119108333, -113.150598333, True, 56, 25, 8, 0.0155549999326, 0.00927199982107, 1.02785003185, 1.50819993019, -5.15299987793, -3.05531001091, 0.255919992924, 0.00770000042394, -0.19838000834, -0.866985857487, 0.516838014126, 102.596626282, 154.915, True, DATA011.CSV, 5.581, (False, False, False, False)
57.5375, 59.7875, -47.5375, 0.592987863, 14.211558342, 2017-08-21 10:50:59, 75770.015548, 715.003733122, 44.118983333, -113.153366667, True, 68, 29, 9, 0.017324000597, 0.00969900004566, 1.0018029213, -1.44930005074, -4.43550014496, 0.322189986706, 0.394100010395, -0.0175000000745, -0.197680011392, -0.990660488605, 0.55469429493, 106.862541199, 191.37, True, DATA011.CSV, 2.097, (False, False, False, False)
57.425, 59.5625, -47.3125, 0.58522833, 14.2096843719, 2017-08-21 10:51:29, 76099.739968, 734.772583079, 44.119298333, -113.1557, True, 76, 33, 9, 0.0150669999421, 0.0132369995117, 0.986735999584, -6.15679979324, 0.289499998093, 1.42469000816, 0.204680010676, 0.0786800011992, -0.190540000796, -0.87473320961, 0.768573045731, 83.2929916382, 220.595, True, DATA011.CSV, 6.127, (False, False, False, False)
57.2, 59.225, -47.5375, 0.5751119295, 11.8972167969, 2017-08-21 10:52:04, 76584.320036, 743.798491693, 44.120515, -113.159173333, True, 88, 37, 9, 0.0143349999562, 0.00768599985167, 1.02168893814, 3.00444984436, 1.06824994087, -10.5015602112, 0.379120022058, 0.336840003729, -0.186760008335, -0.803823709488, 0.431018710136, 62.699596405, 256.277, True, DATA011.CSV, 3.719, (False, False, False, False)
56.975, 59.1125, -47.425, 0.5645241555, 14.663819313, 2017-08-21 10:52:40, 77037.40404, 792.039015532, 44.121081667, -113.160771667, True, 102, 43, 9, 0.0131149999797, 0.00628300011158, 1.02205502987, -1.51055002213, 1.4182498455, 9.67593955994, 0.22582000494, 0.248780012131, -0.192640006542, -0.735164582729, 0.352216690779, 56.550327301, 291.822, True, DATA011.CSV, 1.32, (False, False, False, False)
56.75, 58.8875, -47.3125, 0.554407755, 14.5061206818, 2017-08-21 10:53:08, 77389.438172, 761.53834728, 44.120875, -113.161683333, True, 116, 48, 9, 0.015188999474, 0.0115289995447, 1.0399889946, 5.43695020676, -7.77799987793, 6.91094017029, 0.259840011597, 0.0169399995357, -0.191799998283, -0.836691737175, 0.635137438774, 100.589935303, 320.473, True, DATA011.CSV, 5.838, (False, False, False, False)
56.525, 58.6625, -48.4375, 0.5437837215, 14.5023002625, 2017-08-21 10:53:44, 77854.005116, 804.221429634, 44.120016667, -113.163405, True, 134, 53, 9, 0.0122609995306, 0.00872300006449, 1.02827703953, -3.66305017471, 2.59074997902, -7.01906013489, 0.180320009589, 0.157360002398, -0.178080007434, -0.683128118515, 0.486035436392, 63.2097511292, 356.04, True, DATA011.CSV, 3.372, (False, False, False, False)
56.3, 58.4375, -46.4125, 0.5333409855, 14.0372247696, 2017-08-21 10:54:19, 78229.333212, 707.463385177, 44.119508333, -113.166605, True, 143, 57, 9, 0.00042699999176, 0.00786899961531, 0.998935997486, -3.78555011749, 1.02449989319, 4.84594011307, 0.594160020351, 0.155680000782, -0.175559997559, -0.0244905948639, 0.451331347227, 89.637588501, 391.677, True, DATA011.CSV, 0.983, (False, False, False, False)
56.1875, 58.2125, -45.7375, 0.525110079, 14.1891088486, 2017-08-21 10:54:48, 78649.608816, 748.637815976, 44.119765, -113.169348333, True, 155, 61, 9, 0.0169580001384, 0.00591699965298, 1.00637793541, -2.80555009842, -0.576750040054, 11.2246894836, 0.492660015821, 0.301560014486, -0.169679999352, -0.965356051922, 0.336866676807, 72.8489532471, 420.178, True, DATA011.CSV, 5.51, (False, False, False, False)
55.9625, 57.9875, -45.0625, 0.5162990205, 14.4927568436, 2017-08-21 10:55:24, 79157.154764, 772.76216104, 44.120408333, -113.172685, True, 172, 64, 9, 0.0309269987047, 0.00817400030792, 1.05877697468, 4.51820039749, -6.58800029755, -10.0465602875, 0.471799999475, 0.291759997606, -0.19362001121, -1.67309081554, 0.442327708006, 72.5874481201, 456.627, True, DATA011.CSV, 2.264, (False, False, False, False)
55.7375, 57.7625, -45.0625, 0.5085394875, 14.1816415787, 2017-08-21 10:55:54, 79531.170524, 756.762804532, 44.120378333, -113.17604, True, 183, 68, 9, 0.0153719997033, 0.0086620002985, 1.00625598431, 0.484449982643, -1.18925011158, -0.999060034752, 0.396620005369, -0.0308000016958, -0.20734000206, -0.8751745224, 0.493198335171, 108.7604599, 485.968, True, DATA011.CSV, 6.011, (False, False, False, False)
55.5125, 57.65, -44.95, 0.500308581, 14.3315210342, 2017-08-21 10:56:30, 79956.695472, 725.450810742, 44.120706667, -113.180136667, True, 194, 74, 9, 0.0106140002608, 0.00890599936247, 0.996129989624, -0.626800000668, 6.05574989319, 7.3834400177, 0.474600017071, 0.272159993649, -0.189980000257, -0.610452473164, 0.512244939804, 74.4878234863, 522.615, True, DATA011.CSV, 2.58, (False, False, False, False)
55.4, 57.425, -43.9375, 0.4909173705, 14.4832277298, 2017-08-21 10:57:06, 80451.774228, 761.543838406, 44.121008333, -113.183865, True, 208, 80, 9, 0.0129929995164, 0.00524599989876, 0.963921964169, 0.589450001717, -3.06175017357, -7.21155977249, 0.306460022926, 0.320040017366, -0.1891400069, -0.772249102592, 0.311820536852, 58.078250885, 558.395, True, DATA011.CSV, 0.079, (False, False, False, False)
55.175, 57.3125, -44.5, 0.4829402805, 14.0187683105, 2017-08-21 10:57:36, 80650.593132, 681.485949492, 44.121116667, -113.185053333, True, 215, 83, 9, 0.0123829999939, 0.00994300004095, 1.0321199894, 4.56195020676, 1.05075001717, 6.32469034195, 0.205520004034, 0.131040006876, -0.190820008516, -0.687349081039, 0.55194580555, 71.7983169556, 586.884, True, DATA011.CSV, 4.743, (False, False, False, False)
55.0625, 57.0875, -44.1625, 0.4732227345, 14.0169258118, 2017-08-21 10:58:15, 81339.569532, 135489.0892, 44.122471667, -113.18721, True, 11, 3, 9, 0.0161039996892, 0.0103699993342, 1.03340101242, -4.64304971695, -0.953000068665, -5.92531013489, 0.217000007629, 0.231420010328, -0.187739998102, -0.892751216888, 0.574933826923, 57.4781494141, 26.622, True, DATA012.CSV, 1.225, (False, False, False, False)
54.8375, 56.8625, -42.925, 0.4646654925, 14.4737110138, 2017-08-21 10:58:39, 81701.446184, 135794.072134, 44.122931667, -113.188255, True, 15, 5, 9, 0.017689999193, 0.00884499959648, 1.01217293739, 3.14444994926, 1.62824988365, 5.4584403038, 0.20300000906, 0.116620004177, -0.187040001154, -1.00123250484, 0.500673532486, 74.4433746338, 55.052, True, DATA012.CSV, 5.971, (False, False, False, False)
54.725, 56.75, -41.8, 0.455346801, 14.1648693085, 2017-08-21 10:59:18, 82240.81628, 810.649895048, 44.122123333, -113.191041667, True, 32, 9, 9, 0.0140909999609, 0.0086620002985, 1.02650797367, -3.76804995537, 3.37824988365, 3.57719016075, 0.494480013847, -0.0532000027597, -0.176119998097, -0.786428749561, 0.48346850276, 110.460693359, 90.737, True, DATA012.CSV, 3.44, (False, False, False, False)
54.5, 56.525, -40.7875, 0.4476235275, 14.0077171326, 2017-08-21 10:59:54, 82688.979024, 836.355872011, 44.121761667, -113.194993333, True, 48, 15, 7, 0.00396499969065, 0.00603900011629, 0.984784007072, -2.70055007935, -8.28550052643, -12.5053100586, 0.208320006728, -0.00756000028923, -0.183679997921, -0.23068228364, 0.35135102272, 106.398368835, 126.121, True, DATA012.CSV, 1.088, (False, False, False, False)
54.3875, 56.3, -39.2125, 0.4408067415, 13.8524675369, 2017-08-21 11:00:23, 83081.695572, 767.353496206, 44.12196, -113.198758333, True, 58, 19, 9, 0.0140300001949, 0.00805199984461, 0.999484956264, 7.46695041656, 0.035749912262, 14.864689827, 0.190820008516, 0.237440004945, -0.185080006719, -0.804195046425, 0.461573332548, 53.1072921753, 156.026, True, DATA012.CSV, 4.131, (False, False, False, False)
54.275, 56.1875, -37.975, 0.434823924, 14.3108148575, 2017-08-21 11:00:54, 83477.364876, 799.227602911, 44.122391667, -113.202118333, True, 69, 24, 9, 0.0130540002137, 0.0109190000221, 1.02144503593, 3.8531999588, 0.691999912262, -3.03780984879, 0.422100007534, -0.021420000121, -0.203979998827, -0.732154488564, 0.612454652786, 107.22505188, 187.174, True, DATA012.CSV, 6.122, (False, False, False, False)
54.1625, 55.9625, -38.5375, 0.425759049, 14.3089361191, 2017-08-21 11:01:33, 84038.060432, 813.786501074, 44.123331667, -113.204133333, True, 82, 30, 9, 0.0165919996798, 0.00975999981165, 1.03053402901, 1.29820001125, 1.66324973106, 1.92343997955, 0.223300009966, 0.171080008149, -0.202440008521, -0.922363221645, 0.542621612549, 66.8626708984, 226.056, True, DATA012.CSV, 0.42, (False, False, False, False)
53.9375, 55.85, -37.8625, 0.419087301, 14.3051786423, 2017-08-21 11:02:04, 84427.49614, 815.253335595, 44.12384, -113.204493333, True, 91, 34, 9, 0.0154329994693, 0.00988199934363, 1.01040399075, -0.0230500027537, -1.45175004005, 9.07218933105, 0.40600001812, -0.0384999997914, -0.213780000806, -0.875030875206, 0.560348927975, 109.737014771, 256.534, True, DATA012.CSV, 3.419, (False, False, False, False)
53.825, 55.625, -36.625, 0.411617844, 15.5297718048, 2017-08-21 11:02:39, 84963.257312, 907.445391798, 44.12319, -113.205546667, True, 105, 40, 9, 0.0128099992871, 0.00841799937189, 1.00582897663, -3.01555013657, -4.6280002594, -9.52156066895, 0.530600011349, 0.0714000016451, -0.200200006366, -0.729640483856, 0.479509502649, 96.6560440063, 292.066, True, DATA012.CSV, 1.064, (False, False, False, False)
53.7125, 55.5125, -36.85, 0.404510982, 14.4547128677, 2017-08-21 11:03:08, 85441.931868, 1095.07846711, 44.12242, -113.207383333, True, 118, 45, 9, 0.0181169994175, 0.00951599981636, 1.05670297146, -0.206800013781, 9.81824970245, 2.14219021797, 0.227779999375, 0.282519996166, -0.181720003486, -0.982190728188, 0.515955626965, 53.1972808838, 320.53, True, DATA012.CSV, 5.608, (False, False, False, False)
53.6, 55.4, -36.625, 0.3947571765, 14.1462812424, 2017-08-21 11:03:44, 85970.803276, 903.678948975, 44.122171667, -113.210683333, True, 132, 50, 9, 0.0166529994458, 0.011590000242, 0.986491978168, 0.895700037479, -4.53175020218, 4.20719003677, 0.49826002121, -0.0526400022209, -0.169260010123, -0.967053115368, 0.673120081425, 110.350784302, 356.199, True, DATA012.CSV, 3.246, (False, False, False, False)
53.375, 55.2875, -34.7125, 0.3869976435, 13.8361110687, 2017-08-21 11:04:19, 86467.850536, 874.097269869, 44.122333333, -113.213465, True, 139, 52, 9, 0.0162869989872, 0.00933299958706, 0.986735999584, 3.38069987297, -1.1455000639, -5.79405975342, 0.419300019741, 0.221620008349, -0.208880007267, -0.945592224598, 0.541913449764, 76.4614105225, 391.69, True, DATA012.CSV, 0.918, (False, False, False, False)
53.2625, 55.0625, -36.2875, 0.381667497, 14.140712738, 2017-08-21 11:04:49, 86877.299368, 891.594061017, 44.121983333, -113.214655, True, 151, 55, 9, 0.017567999661, 0.00664899963886, 1.04114794731, 2.34819984436, -7.13924980164, 1.76593995094, 0.233660012484, 0.248080000281, -0.205520004034, -0.966679275036, 0.36589846015, 57.6054649353, 421.387, True, DATA012.CSV, 4.171, (False, False, False, False)
53.15, 54.95, -34.9375, 0.375938496, 14.1388587952, 2017-08-21 11:05:18, 87266.735076, 797.632642126, 44.121078333, -113.215733333, True, 164, 58, 9, 0.0137859992683, 0.0100039998069, 1.00424301624, 1.37694990635, -6.68424987793, 3.12219023705, 0.526400029659, 0.13831999898, -0.199780002236, -0.786453783512, 0.570746243, 89.5974349976, 451.264, True, DATA012.CSV, 7.382, (False, False, False, False)
53.0375, 54.8375, -33.1375, 0.369556824, 13.9838352203, 2017-08-21 11:05:57, 87807.417508, 818.535808444, 44.120156667, -113.218053333, True, 180, 62, 9, 0.0121999997646, 0.00927199982107, 1.03584098816, 2.59319996834, 1.69825005531, -3.66780996323, 0.547680020332, 0.246959999204, -0.18872000277, -0.674763917923, 0.512851119041, 80.0484161377, 489.638, True, DATA012.CSV, 2.227, (False, False, False, False)
52.925, 54.725, -33.25, 0.3645167535, 14.2882957458, 2017-08-21 11:06:27, 88230.645868, 831.24236691, 44.120605, -113.220168333, True, 193, 67, 9, 0.0287309996784, 0.0105529995635, 1.00851297379, -3.79430007935, 2.34575009346, 4.44343996048, 0.378980010748, 0.25830000639, -0.210560008883, -1.63173878193, 0.599516570568, 70.04296875, 520.161, True, DATA012.CSV, 4.859, (False, False, False, False)
52.8125, 54.6125, -31.1125, 0.3590053095, 14.2864217758, 2017-08-21 11:06:57, 88615.4884, 810.175030017, 44.120565, -113.221583333, True, 206, 70, 9, 0.0190929993987, 0.00890599936247, 1.04120898247, -0.600549995899, -6.12425041199, -0.194059997797, 0.519400000572, 0.213920012116, -0.207900002599, -1.05049586296, 0.490068495274, 81.9351959229, 550.833, True, DATA012.CSV, 7.358, (False, False, False, False)
