Interior Temperature 1, Interior Temperature 2, Exterior Temperature, Pressure, Humidity, GPS Time, Altitude, Ascent Rate, Latitude, Longitude, GPS Validity, GPS Sentences, Failed GPS Sentences, Number of GPS Satellites, Acceleration (x), Acceleration (y), Acceleration (z), Rotation Rate (x), Rotation Rate (y), Rotation Rate (z), Magnetic Field (x), Magnetic Field (y), Magnetic Field (z), Pitch, Roll, Yaw, Time Since Reset, Data Logging Status, Data Filename, Data Age, Relay States
78.2375, 74.075, 81.5, 11.5758816345, 25.7689476013, 2017-08-21 09:00:27, 6784.120952, 5712.16056576, 44.337838333, -113.352318333, True, 30, 16, 5, 0.115838997066, -0.077713996172, 0.999118983746, 0.965699970722, -0.821750044823, -0.14155998826, 0.521640002728, 0.0256200004369, -0.208039999008, -6.59366989136, -4.44765520096, 101.508209229, 154.95, True, DATA000.CSV, 5.581, (False, False, False, False)
77.9, 74.3, 81.8375, 11.576425527, 24.1811065674, 2017-08-21 09:01:03, 6784.449036, 0.546975928987, 44.337835, -113.352318333, True, 45, 22, 6, 0.14231300354, -0.0237900000066, 0.961969971657, 1.34194993973, -0.104250192642, 0.243440002203, 0.515060007572, 0.0266000013798, -0.200340002775, -8.41271400452, -1.41666448116, 101.363609314, 190.286, True, DATA000.CSV, 3.411, (False, False, False, False)
77.7875, 74.3, 82.2875, 11.576425527, 24.6510009766, 2017-08-21 09:01:38, 6784.77712, 0.54789221657, 44.337828333, -113.35232, True, 61, 27, 6, 0.101015999913, -0.0683809965849, 1.00961101055, 0.283200025558, -0.393000125885, -0.0190600007772, 0.515900015831, 0.0316400006413, -0.203979998827, -5.70070314407, -3.87472772598, 100.810455322, 225.711, True, DATA000.CSV, 1.122, (False, False, False, False)
78.0125, 74.6375, 81.95, 11.575700337, 23.8688526154, 2017-08-21 09:02:06, 6784.449036, 0.273918058665, 44.337821667, -113.35232, True, 74, 30, 6, 0.1068719998, -0.0611220002174, 1.00052201748, 1.02695000172, -0.0255000591278, 0.155939996243, 0.522339999676, 0.0245000012219, -0.200900003314, -6.08574104309, -3.49586105347, 101.634544373, 253.914, True, DATA000.CSV, 6.091, (False, False, False, False)
78.575, 75.3125, 82.4, 11.576860641, 22.4641780853, 2017-08-21 09:02:41, 6784.77712, 0.275425634068, 44.337818333, -113.35232, True, 92, 35, 6, 0.0975999981165, -0.0727730020881, 1.00851297379, 0.458200037479, -0.393000125885, -0.0190600007772, 0.519820034504, 0.0242200009525, -0.197120010853, -5.51340436935, -4.12723636627, 101.65234375, 289.184, True, DATA000.CSV, 3.923, (False, False, False, False)
78.9125, 75.7625, 80.0375, 11.5766793435, 23.1050167084, 2017-08-21 09:03:17, 6782.480532, -1.6885046172, 44.337808333, -113.352321667, True, 108, 42, 6, 0.0708820000291, -0.0320249982178, 0.953857004642, 0.25695002079, -0.113000154495, 0.155939996243, 0.520660042763, 0.0280000008643, -0.20762000978, -4.2475066185, -1.92293822765, 101.241706848, 324.464, True, DATA000.CSV, 1.9, (False, False, False, False)
79.025, 75.7625, 78.35, 11.577223236, 22.7922344208, 2017-08-21 09:03:52, 6782.808616, -1.69107088242, 44.337813333, -113.352316667, True, 123, 47, 6, 0.0977220013738, -0.0663679987192, 1.00406002998, 0.0206999927759, -0.00800013542175, -0.00155999884009, 0.524020016193, 0.0289799999446, -0.211680009961, -5.54688072205, -3.78172826767, 101.154579163, 359.678, True, DATA000.CSV, 0.0, (False, False, False, False)
79.025, 76.2125, 80.825, 11.5887900165, 21.8445148468, 2017-08-21 09:04:20, 6786.745624, 2.83520662696, 44.33781, -113.352321667, True, 135, 51, 6, 0.0970509946346, -0.0841189995408, 1.00229096413, 0.764450013638, -0.638000130653, 0.733439981937, 0.523180007935, 0.0371000021696, -0.217980012298, -5.51140403748, -4.79740476608, 100.263793945, 387.956, True, DATA000.CSV, 4.855, (False, False, False, False)
79.025, 76.6625, 80.4875, 11.587375896, 22.4763298035, 2017-08-21 09:04:55, 6788.714128, 5.07294425089, 44.337801667, -113.352328333, True, 151, 57, 6, 0.0996740013361, -0.0652699992061, 1.00491392612, 0.204449996352, -0.165500164032, 0.103440001607, 0.536900043488, 0.0257600005716, -0.200200006366, -5.65261316299, -3.7161886692, 101.573097229, 423.321, True, DATA000.CSV, 2.662, (False, False, False, False)
79.25, 77.225, 78.2375, 11.58708582, 22.4824104309, 2017-08-21 09:05:27, 6785.433288, -1.11786690888, 44.337818333, -113.352323333, True, 167, 63, 6, 0.108274996281, -0.0497759990394, 1.00168097019, -0.25055000186, -0.156750202179, 0.120939999819, 0.531720042229, 0.0315000005066, -0.203140005469, -6.16179180145, -2.84482860565, 100.929656982, 458.502, True, DATA000.CSV, 0.65, (False, False, False, False)
79.475, 77.5625, 78.35, 11.586795744, 22.6465358734, 2017-08-21 09:05:59, 6785.433288, -3.33066539578, 44.337768333, -113.352393333, True, 181, 68, 6, 0.10565199703, -0.0622199997306, 1.00619494915, 0.379450023174, 0.158249855042, 0.094690002501, 0.526260018349, 0.026040000841, -0.204260006547, -5.98283433914, -3.53848910332, 101.487236023, 486.679, True, DATA000.CSV, 5.64, (False, False, False, False)
79.5875, 78.0125, 79.25, 11.586143073, 22.4915390015, 2017-08-21 09:06:34, 6785.433288, -0.807061445946, 44.337793333, -113.352386667, True, 196, 72, 6, 0.0932080000639, -0.0566079989076, 0.99448299408, 0.25695002079, 0.184499979019, 0.0159400012344, 0.518980026245, 0.0317800007761, -0.206080004573, -5.34580612183, -3.2578766346, 100.815834045, 522.097, True, DATA000.CSV, 3.397, (False, False, False, False)
79.925, 78.4625, 75.425, 11.5862518515, 22.5006752014, 2017-08-21 09:07:10, 6788.714128, 2.73242273657, 44.337793333, -113.352351667, True, 212, 80, 6, 0.0947329998016, -0.0721019953489, 0.991005957127, -0.198050007224, -0.0954999923706, 0.112190000713, 0.532559990883, 0.0261800009757, -0.201740011573, -5.44616031647, -4.16130065918, 101.50566864, 557.455, True, DATA000.CSV, 1.214, (False, False, False, False)
80.0375, 78.8, 74.75, 11.587013301, 22.1874332428, 2017-08-21 09:07:38, 6790.682632, 4.40086325901, 44.337791667, -113.352365, True, 224, 84, 5, 0.0884499996901, -0.0325739979744, 1.05950903893, 0.239449992776, 0.971999883652, 0.147190004587, 0.518280029297, 0.0344399996102, -0.221060007811, -4.76986026764, -1.76097106934, 100.518249512, 585.678, True, DATA000.CSV, 6.151, (False, False, False, False)
80.2625, 79.3625, 74.4125, 11.5882823835, 22.668006897, 2017-08-21 09:08:20, 6791.3388, 11858.2225536, 44.337785, -113.352358333, True, 13, 4, 6, 0.102601997554, -0.0609999969602, 1.00625598431, 0.335699975491, -0.0954999923706, -0.0890600010753, 0.521920025349, 0.0342999994755, -0.208320006728, -5.81139707565, -3.46906805038, 100.559989929, 26.505, True, DATA001.CSV, 1.337, (False, False, False, False)
80.375, 79.7, 76.2125, 11.588681238, 22.1964492798, 2017-08-21 09:08:48, 6795.931976, 11862.1588928, 44.337771667, -113.352328333, True, 28, 5, 6, 0.102784998715, -0.0616099983454, 1.00460898876, 0.344449996948, 0.0794999599457, 0.059690002352, 0.51995998621, 0.0371000021696, -0.217420011759, -5.83092164993, -3.5094025135, 100.238761902, 54.753, True, DATA001.CSV, 6.276, (False, False, False, False)
80.6, 80.0375, 76.4375, 11.589406428, 22.20246315, 2017-08-21 09:09:23, 6806.430664, 13.4266497739, 44.337745, -113.352293333, True, 44, 11, 6, 0.100772000849, -0.0602679997683, 1.00528001785, 0.344449996948, 0.219499826431, 0.190939992666, 0.522620022297, 0.037380002439, -0.218260005116, -5.7141699791, -3.43085861206, 100.228919983, 90.228, True, DATA001.CSV, 3.954, (False, False, False, False)
80.825, 80.4875, 76.2125, 11.589623985, 22.5250720978, 2017-08-21 09:09:59, 6808.399168, 10.5687095717, 44.337735, -113.35234, True, 60, 15, 6, 0.098514996469, -0.0577059984207, 1.00222992897, 0.125699982047, 0.166999816895, 0.00719000026584, 0.517719984055, 0.0313600003719, -0.218260005116, -5.60467672348, -3.29531526566, 100.853637695, 125.792, True, DATA001.CSV, 1.582, (False, False, False, False)
81.05, 80.825, 73.625, 11.590639251, 22.0561656952, 2017-08-21 09:10:27, 6806.430664, 0.229136565549, 44.337715, -113.352335, True, 74, 20, 5, 0.112117998302, -0.0652090013027, 1.00808596611, 0.466949999332, 0.131999969482, -0.0278099998832, 0.526260018349, 0.0333200022578, -0.220219999552, -6.33315229416, -3.70107579231, 100.697166443, 154.135, True, DATA001.CSV, 6.411, (False, False, False, False)
81.1625, 81.1625, 73.0625, 11.591074365, 22.0591564178, 2017-08-21 09:11:03, 6818.897856, 8.95175275151, 44.337813333, -113.352305, True, 90, 25, 6, 0.0899140015244, -0.0670999959111, 0.999972999096, -0.425549983978, -0.209249973297, -0.264060020447, 0.537600040436, 0.0438200011849, -0.238980010152, -5.12654781342, -3.83889532089, 99.6600875854, 189.552, True, DATA001.CSV, 4.159, (False, False, False, False)
81.3875, 81.5, 76.775, 11.5902403965, 21.9067363739, 2017-08-21 09:11:38, 6824.803368, 15.560350991, 44.337813333, -113.352308333, True, 107, 29, 6, 0.11815699935, -0.0605730004609, 1.00710999966, 0.125699982047, 0.219499826431, 0.208440005779, 0.519680023193, 0.0295400004834, -0.225260004401, -6.67955112457, -3.44192910194, 101.066650391, 225.013, True, DATA001.CSV, 1.867, (False, False, False, False)
81.5, 81.725, 73.7375, 11.590204137, 22.3849811554, 2017-08-21 09:12:07, 6825.131452, 8.06582255773, 44.337798333, -113.352296667, True, 119, 34, 6, 0.117180995643, -0.0557539984584, 1.00375497341, 0.274450004101, 0.263249874115, 0.0771899968386, 0.520940005779, 0.0273000001907, -0.225120007992, -6.6485619545, -3.17925143242, 101.320137024, 253.803, True, DATA001.CSV, 6.082, (False, False, False, False)
81.725, 82.0625, 72.725, 11.589551466, 21.7571868896, 2017-08-21 09:12:44, 6826.443788, 1.49430454068, 44.337766667, -113.352318333, True, 134, 38, 6, 0.0960140004754, 0.00323299993761, 0.988260984421, 0.291949987411, 0.770749807358, -0.0190600007772, 0.422520011663, -0.0319200009108, -0.2165800035, -5.54909706116, 0.187436908484, 108.640296936, 290.89, True, DATA001.CSV, 2.355, (False, False, False, False)
81.95, 82.175, 74.975, 11.590131618, 21.7630939484, 2017-08-21 09:13:20, 6829.396544, 3.61013787501, 44.337791667, -113.352316667, True, 150, 45, 6, 0.0885719954967, 0.017324000597, 1.00076603889, -0.11930000782, 0.254499912262, 0.0771899968386, 0.416360020638, -0.0378000028431, -0.213640004396, -5.05698490143, 0.991733253002, 109.507476807, 326.276, True, DATA001.CSV, 0.121, (False, False, False, False)
82.0625, 82.2875, 76.1, 11.5908205485, 21.6075153351, 2017-08-21 09:13:48, 6829.396544, 1.48793544366, 44.337798333, -113.352308333, True, 164, 48, 6, 0.107115998864, 0.00536799989641, 1.00625598431, -0.136800006032, 0.271999835968, -0.054059997201, 0.421540021896, -0.0268799997866, -0.229880005121, -6.07616996765, 0.305648654699, 107.968582153, 354.704, True, DATA001.CSV, 4.881, (False, False, False, False)
82.2875, 82.5125, 73.625, 11.589914061, 21.4548072815, 2017-08-21 09:14:23, 6829.724628, 0.864828629745, 44.337808333, -113.352306667, True, 179, 52, 6, 0.111507996917, 0.00719799986109, 1.0061340332, 0.00319999456406, 0.0182499885559, 0.0859400033951, 0.414120018482, -0.0340199992061, -0.225960001349, -6.32401704788, 0.409893661737, 109.016304016, 390.272, True, DATA001.CSV, 2.479, (False, False, False, False)
82.4, 82.7375, 73.4, 11.590204137, 21.9335098267, 2017-08-21 09:14:59, 6829.396544, -0.00693346241715, 44.337815, -113.352303333, True, 196, 57, 6, 0.113947995007, 0.0106750000268, 1.00552403927, 0.335699975491, 0.210749864578, -0.0365599989891, 0.416220009327, -0.0305200014263, -0.228760004044, -6.46493005753, 0.608249425888, 108.513793945, 425.657, True, DATA001.CSV, 0.129, (False, False, False, False)
82.5125, 82.9625, 74.75, 11.5898052825, 21.9364891052, 2017-08-21 09:15:27, 6829.396544, -0.291970647348, 44.337815, -113.352301667, True, 211, 59, 7, 0.103822000325, 0.0106750000268, 1.01985895634, 0.379450023174, 0.245749950409, 0.0509399995208, 0.415380001068, -0.0238000005484, -0.233520001173, -5.81238889694, 0.599700629711, 107.599281311, 454.062, True, DATA001.CSV, 4.998, (False, False, False, False)
82.7375, 83.1875, 73.85, 11.590276656, 21.4664649963, 2017-08-21 09:16:03, 6829.06846, -0.263815383078, 44.33782, -113.352298333, True, 225, 66, 7, 0.101808995008, 0.00646599987522, 1.00204694271, 0.379450023174, 0.569499969482, 0.00719000026584, 0.418040007353, -0.0294000003487, -0.231279999018, -5.80128240585, 0.369712561369, 108.342880249, 489.472, True, DATA001.CSV, 2.74, (False, False, False, False)
82.85, 83.4125, 74.975, 11.5901678775, 21.6280670166, 2017-08-21 09:16:38, 6828.084208, -1.0896927157, 44.337825, -113.352296667, True, 242, 72, 7, 0.10931199789, 0.0109799997881, 1.00332796574, 0.230700001121, 0.481999874115, 0.0334400013089, 0.412300020456, -0.0268799997866, -0.213500007987, -6.21744775772, 0.62699586153, 108.050125122, 525.061, True, DATA001.CSV, 0.314, (False, False, False, False)
83.075, 83.525, 74.3, 11.590349175, 21.9513969421, 2017-08-21 09:17:07, 6827.099956, -1.37480711013, 44.337826667, -113.352291667, True, 254, 77, 6, 0.120352998376, 0.0115289995447, 0.999179959297, 0.370700001717, 0.306999921799, 0.112190000713, 0.410760015249, -0.0288400016725, -0.231980010867, -6.86783647537, 0.66107583046, 108.336212158, 553.465, True, DATA001.CSV, 5.085, (False, False, False, False)
83.1875, 83.75, 73.5125, 11.585055288, 21.795633316, 2017-08-21 09:17:42, 6827.42804, -1.67369808452, 44.337825, -113.352296667, True, 270, 81, 7, 0.109434001148, 0.00921100005507, 1.01131892204, 0.116949990392, 0.219499826431, 0.243440002203, 0.407540023327, -0.0268799997866, -0.232260003686, -6.17564487457, 0.521830260754, 108.093566895, 588.923, True, DATA001.CSV, 2.8, (False, False, False, False)
83.3, 83.975, 72.05, 11.590421694, 21.4810562134, 2017-08-21 09:18:20, 6825.459536, 5912.90109863, 44.33783, -113.352295, True, 13, 4, 7, 0.113093994558, 0.00872300006449, 1.00918400288, -0.110550001264, 0.105749845505, 0.00719000026584, 0.41034001112, -0.0313600003719, -0.224560007453, -6.39392471313, 0.495230406523, 108.690299988, 26.496, True, DATA002.CSV, 1.36, (False, False, False, False)
83.525, 84.0875, 73.175, 11.590059099, 21.6457118988, 2017-08-21 09:18:48, 6825.459536, 5912.90109863, 44.33783, -113.352295, True, 26, 8, 7, 0.124256998301, 0.00585599988699, 1.00924503803, 0.31819999218, 0.193249940872, -0.124059997499, 0.410620003939, -0.0315000005066, -0.234360009432, -7.01874542236, 0.332446813583, 108.706748962, 54.722, True, DATA002.CSV, 6.139, (False, False, False, False)
83.6375, 84.3125, 75.5375, 11.589841542, 21.3309898376, 2017-08-21 09:19:23, 6823.819116, -1.35405644134, 44.337831667, -113.352306667, True, 42, 13, 7, 0.109861001372, 0.00823500007391, 1.00363302231, 0.116949990392, 0.481999874115, 0.155939996243, 0.410620003939, -0.0239400006831, -0.227640002966, -6.24670553207, 0.470112234354, 107.656677246, 90.211, True, DATA002.CSV, 3.959, (False, False, False, False)
83.75, 84.5375, 79.475, 11.5901678775, 21.3338909149, 2017-08-21 09:19:59, 6823.819116, -1.37606576807, 44.337828333, -113.352313333, True, 59, 18, 6, 0.109494999051, 0.00817400030792, 1.00314497948, 0.230700001121, 0.350749969482, -0.010309997946, 0.404180020094, -0.0287000015378, -0.214060008526, -6.22906684875, 0.466857105494, 108.381637573, 125.746, True, DATA002.CSV, 1.585, (False, False, False, False)
83.975, 84.65, 79.3625, 11.5895152065, 21.8163928986, 2017-08-21 09:20:27, 6823.819116, -0.308467605029, 44.337825, -113.352295, True, 73, 20, 7, 0.107664994895, 0.0131759997457, 1.00107097626, 0.125699982047, 0.140749931335, 0.190939992666, 0.411180019379, -0.0236600004137, -0.217840000987, -6.13802719116, 0.754077911377, 107.613258362, 154.074, True, DATA002.CSV, 6.409, (False, False, False, False)
84.0875, 84.875, 75.2, 11.5887900165, 21.1836795807, 2017-08-21 09:21:02, 6826.443788, 2.21960601965, 44.337806667, -113.352301667, True, 89, 26, 7, 0.1068719998, 0.00963800027966, 1.00625598431, 0.31819999218, 0.0882499217987, 0.094690002501, 0.408940017223, -0.0291200000793, -0.227779999375, -6.06224250793, 0.548766791821, 108.393058777, 189.485, True, DATA002.CSV, 4.169, (False, False, False, False)
84.2, 85.1, 76.6625, 11.588753757, 21.8223304749, 2017-08-21 09:21:36, 6823.162948, -0.49421940645, 44.337823333, -113.352318333, True, 106, 29, 6, 0.107847996056, 0.00786899961531, 1.00723195076, 0.213199988008, 0.438249826431, 0.059690002352, 0.412720024586, -0.0246400013566, -0.225260004401, -6.11139774323, 0.44761416316, 107.736587524, 224.99, True, DATA002.CSV, 1.746, (False, False, False, False)
84.3125, 85.2125, 77.5625, 11.5887900165, 21.3484115601, 2017-08-21 09:22:04, 6833.005468, 6.57708513327, 44.337823333, -113.352333333, True, 119, 32, 6, 0.10668899864, 0.00969900004566, 1.00460898876, 0.0732000023127, 0.438249826431, -0.150310009718, 0.413840025663, -0.030660001561, -0.225120007992, -6.0617814064, 0.553145051003, 108.557098389, 253.496, True, DATA002.CSV, 6.475, (False, False, False, False)
84.425, 85.4375, 77.225, 11.588463681, 21.6692867279, 2017-08-21 09:22:40, 6832.3493, 6.02125863256, 44.337848333, -113.352335, True, 135, 39, 6, 0.110226996243, 0.00670999987051, 1.00765895844, 0.0556999891996, 0.595749855042, 0.0159400012344, 0.408800005913, -0.0226800013334, -0.219940006733, -6.24257993698, 0.381526887417, 107.495475769, 288.872, True, DATA002.CSV, 4.25, (False, False, False, False)
84.65, 85.55, 77.9, 11.588463681, 21.6751861572, 2017-08-21 09:23:15, 6833.005468, 0.0167310668785, 44.337851667, -113.352335, True, 153, 44, 7, 0.111019998789, 0.00707599986345, 1.0025960207, 0.0644499957561, 0.543249845505, 0.0859400033951, 0.409220010042, -0.0236600004137, -0.228760004044, -6.31860780716, 0.404368400574, 107.628997803, 324.387, True, DATA002.CSV, 1.908, (False, False, False, False)
84.7625, 85.775, 79.025, 11.589116352, 21.2009887695, 2017-08-21 09:23:43, 6833.005468, 0.8173928726, 44.337851667, -113.352335, True, 165, 48, 7, 0.110409997404, 0.00939399935305, 1.0061340332, 0.291949987411, 0.00950002670288, 0.147190004587, 0.402779996395, -0.0225400011986, -0.221060007811, -6.2621307373, 0.534939527512, 107.522979736, 352.84, True, DATA002.CSV, 6.651, (False, False, False, False)
84.875, 85.8875, 78.0125, 11.589116352, 21.2038764954, 2017-08-21 09:24:19, 6833.005468, 0.0, 44.337851667, -113.352335, True, 183, 53, 7, 0.106566995382, 0.00817400030792, 1.00741493702, 0.335699975491, 0.534499883652, -0.0190600007772, 0.403899997473, -0.0222600009292, -0.215180009604, -6.0382437706, 0.464878380299, 107.474525452, 388.22, True, DATA002.CSV, 4.364, (False, False, False, False)
84.9875, 86.0, 77.9, 11.589333909, 21.5249500275, 2017-08-21 09:24:55, 6833.005468, 0.0, 44.33785, -113.352335, True, 201, 58, 7, 0.109555996954, 0.00878399983048, 1.00460898876, 0.239449992776, 0.298249959946, 0.129689991474, 0.408240020275, -0.0208600014448, -0.224980011582, -6.22346687317, 0.500964283943, 107.245117188, 423.784, True, DATA002.CSV, 1.996, (False, False, False, False)
85.1, 86.225, 75.875, 11.5896602445, 21.2096538544, 2017-08-21 09:25:23, 6831.693132, -1.09031549059, 44.337851667, -113.352338333, True, 214, 62, 7, 0.109007000923, 0.00616099964827, 1.00131499767, 0.326950013638, 0.429499864578, 0.0421900004148, 0.404320001602, -0.0245000012219, -0.217140004039, -6.21285486221, 0.352531224489, 107.787628174, 452.493, True, DATA002.CSV, 6.304, (False, False, False, False)
85.2125, 86.3375, 72.8375, 11.5890075735, 21.5308170319, 2017-08-21 09:25:58, 6832.021216, -0.740253209672, 44.337858333, -113.352335, True, 232, 69, 6, 0.0944890007377, 0.00945500005037, 1.00753700733, 0.204449996352, 0.166999816895, 0.0684400051832, 0.405860006809, -0.0250599998981, -0.226940006018, -5.35741758347, 0.537663340569, 107.853256226, 488.029, True, DATA002.CSV, 4.075, (False, False, False, False)
85.325, 86.5625, 73.0625, 11.5893701685, 21.0562782288, 2017-08-21 09:26:34, 6830.052712, -1.3037378066, 44.337856667, -113.352331667, True, 249, 73, 7, 0.106017999351, 0.00957699958235, 1.00320601463, 0.53694999218, 0.280749797821, 0.0771899968386, 0.403760015965, -0.0253400001675, -0.210000008345, -6.03230810165, 0.54695135355, 107.911170959, 523.452, True, DATA002.CSV, 1.81, (False, False, False, False)
85.4375, 86.675, 73.9625, 11.58926139, 21.3775081635, 2017-08-21 09:27:03, 6835.63014, 3.13352826741, 44.337836667, -113.352331667, True, 262, 78, 5, 0.111141994596, 0.00664899963886, 1.00467002392, 0.31819999218, 0.595749855042, 0.0421900004148, 0.404600024223, -0.0261800009757, -0.214060008526, -6.31256103516, 0.379183202982, 108.022209167, 551.963, True, DATA002.CSV, 6.468, (False, False, False, False)
85.55, 86.7875, 73.85, 11.589769023, 21.2212200165, 2017-08-21 09:27:38, 6831.036964, -1.08776966676, 44.33787, -113.352338333, True, 280, 82, 6, 0.105895996094, 0.00683199986815, 1.00509703159, 0.0994499921799, 0.201999902725, -0.010309997946, 0.407260000706, -0.0224000010639, -0.221060007811, -6.01429796219, 0.389453679323, 107.468185425, 587.364, True, DATA002.CSV, 4.228, (False, False, False, False)
85.6625, 87.0125, 74.75, 11.5902403965, 21.3833370209, 2017-08-21 09:28:17, 6832.677384, 11840.2942633, 44.337863333, -113.352318333, True, 13, 2, 7, 0.110287994146, 0.0101870000362, 1.00643897057, -0.0493000075221, 0.280749797821, -0.124059997499, 0.417199999094, -0.0261800009757, -0.221900001168, -6.25333786011, 0.579918086529, 107.910690308, 26.585, True, DATA003.CSV, 1.277, (False, False, False, False)
85.775, 87.0125, 75.875, 11.5898778015, 21.0677642822, 2017-08-21 09:28:45, 6842.847988, 11848.9291286, 44.337835, -113.352306667, True, 26, 8, 7, 0.107969999313, 0.00738099962473, 1.00674402714, 0.0907000005245, 0.289499998093, 0.252189993858, 0.416780024767, -0.0284200012684, -0.222460001707, -6.12122392654, 0.420059621334, 108.220916748, 54.835, True, DATA003.CSV, 6.181, (False, False, False, False)
85.8875, 87.2375, 72.8375, 11.586578187, 21.5484333038, 2017-08-21 09:29:21, 6840.879484, 8.72668846827, 44.33783, -113.352313333, True, 44, 12, 7, -0.0531919971108, -0.0902799963951, 0.986431002617, 12.9444503784, 2.75699973106, 5.39719009399, 0.233660012484, 0.349860012531, -0.209020003676, 3.07378864288, -5.22924804688, 48.0576591492, 90.265, True, DATA003.CSV, 3.908, (False, False, False, False)
86.1125, 87.4625, 71.825, 11.583967503, 21.3950042725, 2017-08-21 09:29:56, 6830.70888, -10.3135760959, 44.337886667, -113.352278333, True, 60, 16, 7, 0.0230579990894, 0.000792999984697, 1.06762194633, 1.98944997787, -6.04549980164, -16.5215606689, 0.201320007443, 0.0901600047946, -0.242060005665, -1.23725473881, 0.042557708919, 80.1950531006, 125.663, True, DATA003.CSV, 1.654, (False, False, False, False)
86.225, 87.6875, 68.1125, 11.3835612465, 20.6012592316, 2017-08-21 09:30:25, 6882.546152, 36.0839461863, 44.338466667, -113.352193333, True, 74, 21, 7, 0.0187879987061, -0.0086620002985, 0.985759973526, 0.458200037479, 3.78949999809, 29.4946899414, 0.191660001874, 0.142100006342, -0.241220012307, -1.09184896946, -0.503452420235, 67.76612854, 154.202, True, DATA003.CSV, 6.296, (False, False, False, False)
86.3375, 88.025, 65.1875, 11.1124852245, 21.2414875031, 2017-08-21 09:31:00, 6979.659016, 120.966985708, 44.338466667, -113.352061667, True, 92, 25, 6, 0.0148839997128, 0.00628300011158, 1.0540189743, -0.810549974442, 2.10949969292, 17.4371891022, 0.495460003614, 0.141680002213, -0.25354000926, -0.809016287327, 0.341535687447, 88.3617706299, 189.729, True, DATA003.CSV, 3.894, (False, False, False, False)
86.45, 88.1375, 62.375, 10.8748404615, 20.9256362915, 2017-08-21 09:31:36, 7090.223324, 175.390657753, 44.338405, -113.352103333, True, 106, 31, 7, 0.013358999975, -0.00195199996233, 1.05182301998, -2.39429998398, -3.7092499733, 2.39594006538, 0.164360001683, 0.0485800020397, -0.207479998469, -0.727662146091, -0.10633084178, 87.8538665771, 225.162, True, DATA003.CSV, 1.622, (False, False, False, False)
86.5625, 88.3625, 60.2375, 10.6694666535, 20.9284915924, 2017-08-21 09:32:04, 7133.858496, 143.296378031, 44.33805, -113.351756667, True, 119, 35, 7, 0.00469699967653, 0.0260469987988, 1.03096103668, 1.49944996834, 8.09449958801, 4.68844032288, 0.271180003881, 0.0215600002557, -0.234360009432, -0.260951191187, 1.44725704193, 99.7742919922, 253.553, True, DATA003.CSV, 6.383, (False, False, False, False)
86.5625, 88.3625, 57.425, 10.4082532155, 20.9284915924, 2017-08-21 09:32:40, 7189.96086, 116.299153501, 44.337166667, -113.351595, True, 136, 41, 7, 0.00622199987993, 0.0166529994458, 1.02181100845, 2.78569984436, -0.0517501831055, 11.6096897125, 0.513100028038, -0.0501199997962, -0.197680011392, -0.348834186792, 0.933697283268, 109.898986816, 289.049, True, DATA003.CSV, 4.042, (False, False, False, False)
86.675, 88.475, 54.275, 10.1573374755, 20.7719249725, 2017-08-21 09:33:15, 7229.002856, 79.8878165513, 44.336935, -113.350671667, True, 153, 43, 6, 0.0042699999176, 0.013358999975, 0.977524995804, 5.34945011139, 1.73324990273, 6.38594007492, 0.265579998493, 0.35070002079, -0.230300009251, -0.250252962112, 0.782963752747, 51.456111908, 324.682, True, DATA003.CSV, 1.566, (False, False, False, False)
86.675, 88.5875, 51.6875, 9.971507538, 21.0907688141, 2017-08-21 09:33:40, 7144.357184, -34.3904648699, 44.335903333, -113.349911667, True, 164, 47, 5, 0.0143349999562, 0.0169580001384, 1.02150595188, 2.3044500351, -1.20675003529, -12.8815603256, 0.214060008526, 0.201039999723, -0.243040010333, -0.803879678249, 0.951078593731, 61.1165428162, 352.996, True, DATA003.CSV, 6.408, (False, False, False, False)
86.9, 88.7, 49.2125, 9.735893307, 20.139749527, 2017-08-21 09:34:18, 7178.149836, -59.1982174724, 44.334841667, -113.348956667, True, 179, 52, 5, 0.0206789989024, 0.00243999995291, 0.99869197607, 1.11444997787, -3.5342502594, 41.5609397888, 0.346080005169, 0.416780024767, -0.20300000906, -1.18619799614, 0.13998451829, 54.0250892639, 388.407, True, DATA003.CSV, 4.174, (False, False, False, False)
86.9, 88.8125, 46.9625, 9.5071321215, 20.7775974274, 2017-08-21 09:34:54, 6923.228568, -191.227556729, 44.33348, -113.347836667, True, 194, 57, 4, -0.000731999985874, 0.00658799987286, 1.03218102455, 6.63570022583, 15.9869995117, 17.0521888733, 0.475720018148, -0.0394800007343, -0.20258000493, 0.0406320653856, 0.365691125393, 109.064102173, 423.955, True, DATA003.CSV, 1.768, (False, False, False, False)
86.9, 89.0375, 44.6, 9.3346094205, 20.7775974274, 2017-08-21 09:35:23, 6879.92148, -254.344454962, 44.332836667, -113.346153333, True, 204, 60, 5, 0.0125049995258, 0.00518499966711, 1.03090000153, -11.5380496979, -0.331750154495, 5.47594022751, 0.372260004282, -0.0662200003862, -0.20762000978, -0.694965004921, 0.288171589375, 114.40662384, 452.404, True, DATA003.CSV, 6.474, (False, False, False, False)
87.0125, 89.15, 43.925, 9.0951516825, 20.4614677429, 2017-08-21 09:35:55, 6838.254812, -92.3066658497, 44.331838333, -113.343316667, True, 219, 66, 5, 0.0181779991835, 0.00890599936247, 1.02888703346, 5.06070041656, -2.36175012589, 13.8409395218, 0.35490000248, 0.320040017366, -0.242620006204, -1.01213765144, 0.495937228203, 62.2766418457, 488.029, True, DATA003.CSV, 4.016, (False, False, False, False)
87.0125, 89.15, 42.8, 8.8709229345, 20.3019809723, 2017-08-21 09:36:34, 6846.456912, -29.4875379816, 44.330631667, -113.338913333, True, 237, 72, 4, 0.0128099992871, 0.00756399985403, 1.02418994904, -7.16304969788, -1.77550005913, 3.31469011307, 0.222740009427, 0.152600005269, -0.250039994717, -0.716566801071, 0.423141598701, 69.9048080444, 523.453, True, DATA003.CSV, 1.762, (False, False, False, False)
87.125, 89.2625, 39.7625, 8.692780011, 20.4642620087, 2017-08-21 09:37:02, 6846.784996, 4.34865246657, 44.330358333, -113.33556, True, 250, 76, 5, 0.017446000129, -0.015188999474, 1.00290095806, -0.294300019741, -6.29925012589, 0.759689986706, 0.376460015774, -0.0625800043344, -0.204820007086, -0.996475875378, -0.867681860924, 113.758125305, 551.972, True, DATA003.CSV, 6.437, (False, False, False, False)
87.125, 89.375, 38.975, 8.498574129, 20.4642620087, 2017-08-21 09:37:38, 6864.829616, 2.97719710269, 44.328865, -113.331805, True, 266, 80, 4, 0.0238509997725, 0.0126879997551, 0.988748967648, -3.6017999649, -1.24175012112, 16.5096893311, 0.471240013838, -0.0473200008273, -0.216440007091, -1.38172996044, 0.735200643539, 110.05418396, 587.527, True, DATA003.CSV, 4.038, (False, False, False, False)
87.2375, 89.375, 36.275, 8.2955571885, 20.3075275421, 2017-08-21 09:38:17, 6942.25744, 6002.9585619, 44.327501667, -113.327163333, True, 13, 6, 4, 0.017689999193, 0.0188490003347, 1.02754497528, 5.55070018768, 2.70449995995, 1.26718997955, 0.12894000113, 0.228339999914, -0.208320006728, -0.986128807068, 1.05089998245, 43.772731781, 26.501, True, DATA004.CSV, 1.366, (False, False, False, False)
87.2375, 89.375, 34.925, 8.1589313925, 20.3075275421, 2017-08-21 09:38:45, 7007.218072, 6058.02638521, 44.32663, -113.32331, True, 26, 7, 5, 0.0286090001464, 0.00738099962473, 1.0391960144, 0.0556999891996, -5.94925022125, -24.9915599823, 0.185359999537, 0.129780009389, -0.229880005121, -1.5769109726, 0.406942486763, 69.3221664429, 54.737, True, DATA004.CSV, 6.277, (False, False, False, False)
87.35, 89.4875, 33.8, 7.9729926765, 20.629404068, 2017-08-21 09:39:21, 7028.543532, 82.2284205645, 44.32548, -113.31863, True, 40, 13, 5, -0.000853999983519, 0.017446000129, 1.01302695274, 2.40945005417, 2.9494998455, 13.6396894455, 0.536900043488, 0.0294000003487, -0.218960002065, 0.0482942014933, 0.986630499363, 101.185676575, 90.317, True, DATA004.CSV, 3.848, (False, False, False, False)
87.35, 89.6, 31.775, 7.7866913655, 20.3103027344, 2017-08-21 09:39:56, 6993.438544, -13.8571164735, 44.32407, -113.313326667, True, 59, 17, 5, -0.00237899995409, -0.00164699996822, 1.02669095993, 0.466949999332, -4.09425020218, -15.0690603256, 0.416920006275, -0.00210000015795, -0.235339999199, 0.132762655616, -0.0919128209352, 104.608589172, 125.798, True, DATA004.CSV, 1.535, (False, False, False, False)
87.2375, 89.6, 30.0875, 7.626968268, 19.8289432526, 2017-08-21 09:40:25, 6953.74038, -43.8175395131, 44.323208333, -113.309331667, True, 70, 21, 4, 0.00982099957764, -0.000548999989405, 0.997776985168, -1.72055006027, 0.691999912262, -0.281560003757, 0.478380024433, 0.227779999375, -0.251579999924, -0.563937187195, -0.0315254591405, 78.8585968018, 154.198, True, DATA004.CSV, 6.29, (False, False, False, False)
87.35, 89.7125, 25.25, 7.434212766, 20.1507549286, 2017-08-21 09:41:00, 6979.002848, -11.6909466296, 44.32238, -113.303935, True, 86, 25, 4, 0.0168359987438, 0.00591699965298, 0.997593998909, 4.7107000351, 1.94324994087, 2.85094022751, 0.212380006909, 0.149800002575, -0.236180007458, -0.966849386692, 0.339832723141, 69.1231689453, 189.725, True, DATA004.CSV, 3.912, (False, False, False, False)
87.2375, 89.7125, 23.225, 7.2410584095, 20.3075275421, 2017-08-21 09:41:35, 6952.09996, -0.152676762157, 44.32089, -113.29939, True, 102, 32, 5, 0.0240339990705, 0.0121389999986, 1.03937900066, 7.05570030212, -5.26675033569, -18.2628097534, 0.208880007267, 0.280000001192, -0.225120007992, -1.32454812527, 0.669132053852, 51.0429382324, 225.167, True, DATA004.CSV, 1.633, (False, False, False, False)
87.2375, 89.7125, 21.3125, 7.092213162, 20.3075275421, 2017-08-21 09:42:03, 6951.443792, -24.7100093938, 44.319513333, -113.29701, True, 115, 36, 4, 0.0162869989872, 0.0102479998022, 1.03242492676, 3.66945004463, -7.2530002594, -16.617811203, 0.215320006013, 0.204680010676, -0.233520001173, -0.903748929501, 0.56870752573, 60.7711753845, 253.599, True, DATA004.CSV, 6.367, (False, False, False, False)
